<?xml version="1.0" encoding="UTF-8"?><kml xmlns = "http://www.opengis.net/kml/2.2" xmlns:gx="http://www.google.com/kml/ext/2.2" xmlns:kml="http://www.opengis.net/kml/2.2" xmlns:atom="http://www.w3.org/2005/Atom"><Document><name>PP</name><Style id="s_ylw-pushpin"><IconStyle><scale>1.1</scale><Icon><href>http://maps.google.com/mapfiles/kml/pushpin/ylw-pushpin.png</href></Icon><hotSpot x="20" y="2" xunits="pixels" yunits="pixels"/></IconStyle></Style><StyleMap id="m_ylw-pushpin"><Pair><key>normal</key><styleUrl>#s_ylw-pushpin</styleUrl></Pair><Pair><key>highlight</key><styleUrl>#s_ylw-pushpin_hl</styleUrl></Pair></StyleMap><Style id="s_ylw-pushpin_hl"><IconStyle><scale>1.3</scale><Icon><href>http://maps.google.com/mapfiles/kml/pushpin/ylw-pushpin.png</href></Icon><hotSpot x="20" y="2" xunits="pixels" yunits="pixels"/></IconStyle></Style><Placemark><name>Advanced Cure Diagnostic Center</name><Point><gx:drawOrder>1</gx:drawOrder><coordinates>54.349304,24.459631,0</coordinates></Point></Placemark><Placemark><name>American Center for Psychiatry and Neurology </name><Point><gx:drawOrder>1</gx:drawOrder><coordinates>54.362247,24.462385,0</coordinates></Point></Placemark><Placemark><name>The American Surgecenter</name><Point><gx:drawOrder>1</gx:drawOrder><coordinates>54.363338,24.46053,0</coordinates></Point></Placemark><Placemark><name>French Dental and Aesthetic Center</name><Point><gx:drawOrder>1</gx:drawOrder><coordinates>54.374099,24.453166,0</coordinates></Point></Placemark><Placemark><name>INTRA LASER Medical Center</name><Point><gx:drawOrder>1</gx:drawOrder><coordinates>54.370979,24.458344,0</coordinates></Point></Placemark><Placemark><name>Modern German Dental Center</name><Point><gx:drawOrder>1</gx:drawOrder><coordinates>54.339151,24.456955,0</coordinates></Point></Placemark><Placemark><name>The Right Bite Nutrition & Catering Services</name><Point><gx:drawOrder>1</gx:drawOrder><coordinates>55.242582,25.141507,0</coordinates></Point></Placemark><Placemark><name>Al Thuraya Dental & Implant Center</name><Point><gx:drawOrder>1</gx:drawOrder><coordinates>54.377049,24.462463,0</coordinates></Point></Placemark><Placemark><name>CosmeSurge and Emirates Hospital</name><Point><gx:drawOrder>1</gx:drawOrder><coordinates>54.336109,24.583187,0</coordinates></Point></Placemark><Placemark><name>First Medical Center - Deira Branch</name><Point><gx:drawOrder>1</gx:drawOrder><coordinates>55.328847,25.265131,0</coordinates></Point></Placemark><Placemark><name>International Center for Dental Excellence</name><Point><gx:drawOrder>1</gx:drawOrder><coordinates>54.440952,24.417635,0</coordinates></Point></Placemark><Placemark><name>Boston Dental Center</name><Point><gx:drawOrder>1</gx:drawOrder><coordinates>54.352906,24.468166,0</coordinates></Point></Placemark><Placemark><name>Dr. Ahmad Abu Sharia Medical Centre</name><Point><gx:drawOrder>1</gx:drawOrder><coordinates>54.352391,24.468049,0</coordinates></Point></Placemark><Placemark><name>Dr. Al Jundi Orthodontic and Dental Center</name><Point><gx:drawOrder>1</gx:drawOrder><coordinates>54.347305,24.477931,0</coordinates></Point></Placemark><Placemark><name>Dr. Rocco's Specialized Dental Center</name><Point><gx:drawOrder>1</gx:drawOrder><coordinates>54.35707,24.480558,0</coordinates></Point></Placemark><Placemark><name>Whitefield Dental Clinic</name><Point><gx:drawOrder>1</gx:drawOrder><coordinates>54.364031,24.458493,0</coordinates></Point></Placemark><Placemark><name>Al Dana Medical & Dental Centre</name><Point><gx:drawOrder>1</gx:drawOrder><coordinates>54.369088,24.492597,0</coordinates></Point></Placemark><Placemark><name>Barbara Orthodontic and Dental Polyclinic</name><Point><gx:drawOrder>1</gx:drawOrder><coordinates>54.360697,24.491186,0</coordinates></Point></Placemark><Placemark><name>Burjeel Hospital</name><Point><gx:drawOrder>1</gx:drawOrder><coordinates>54.380962,24.479403,0</coordinates></Point></Placemark><Placemark><name>Dhafra Speciality Dental Clinic</name><Point><gx:drawOrder>1</gx:drawOrder><coordinates>54.379639,24.46098,0</coordinates></Point></Placemark><Placemark><name>Fakih IVF - Abu Dhabi</name><Point><gx:drawOrder>1</gx:drawOrder><coordinates>54.367626,24.467125,0</coordinates></Point></Placemark><Placemark><name>Harley Street Medical Centre</name><Point><gx:drawOrder>1</gx:drawOrder><coordinates>54.318925,24.473691,0</coordinates></Point></Placemark><Placemark><name>Nadia Medical Centre</name><Point><gx:drawOrder>1</gx:drawOrder><coordinates>54.382925,24.486446,0</coordinates></Point></Placemark><Placemark><name>Sheikh Khalifa Medical Center</name><Point><gx:drawOrder>1</gx:drawOrder><coordinates>54.366531,24.469856,0</coordinates></Point></Placemark><Placemark><name>Advanced Center Daycare Surgery</name><Point><gx:drawOrder>1</gx:drawOrder><coordinates>54.369539,24.471252,0</coordinates></Point></Placemark><Placemark><name>Nora Medical Polyclinic</name><Point><gx:drawOrder>1</gx:drawOrder><coordinates>54.36726,24.474454,0</coordinates></Point></Placemark><Placemark><name>Al Ahly Specialist Medical Centre</name><Point><gx:drawOrder>1</gx:drawOrder><coordinates>54.403124,24.450744,0</coordinates></Point></Placemark><Placemark><name>Awazen Center</name><Point><gx:drawOrder>1</gx:drawOrder><coordinates>54.37583,24.477931,0</coordinates></Point></Placemark><Placemark><name>Seha Emirates Hospital</name><Point><gx:drawOrder>1</gx:drawOrder><coordinates>54.383076,24.470942,0</coordinates></Point></Placemark><Placemark><name>Ibn Nafees Medical Center</name><Point><gx:drawOrder>1</gx:drawOrder><coordinates>54.36856,24.491445,0</coordinates></Point></Placemark><Placemark><name>Ayman Dental Center</name><Point><gx:drawOrder>1</gx:drawOrder><coordinates>54.348382,24.464358,0</coordinates></Point></Placemark><Placemark><name>Derma Beauty and Laser Medical Clinic</name><Point><gx:drawOrder>1</gx:drawOrder><coordinates>54.353869,24.487328,0</coordinates></Point></Placemark><Placemark><name>Gentle Dental Care Center</name><Point><gx:drawOrder>1</gx:drawOrder><coordinates>55.386118,25.339798,0</coordinates></Point></Placemark><Placemark><name>Merhi Dental & Orthodontic Center</name><Point><gx:drawOrder>1</gx:drawOrder><coordinates>54.370136,24.502926,0</coordinates></Point></Placemark><Placemark><name>Stars for Special Abilities</name><Point><gx:drawOrder>1</gx:drawOrder><coordinates>54.403073,24.452721,0</coordinates></Point></Placemark><Placemark><name>Al Noor Hospital</name><Point><gx:drawOrder>1</gx:drawOrder><coordinates>54.360708,24.490873,0</coordinates></Point></Placemark><Placemark><name>Consultants Medical Center</name><Point><gx:drawOrder>1</gx:drawOrder><coordinates>54.375694,24.499763,0</coordinates></Point></Placemark><Placemark><name>Dr. Firas Dental and Orthodontic Center</name><Point><gx:drawOrder>1</gx:drawOrder><coordinates>54.31896,24.473225,0</coordinates></Point></Placemark><Placemark><name>Remax Medical Centre</name><Point><gx:drawOrder>1</gx:drawOrder><coordinates>54.317822,24.473244,0</coordinates></Point></Placemark><Placemark><name>Riviera Medical Center</name><Point><gx:drawOrder>1</gx:drawOrder><coordinates>54.317822,24.473244,0</coordinates></Point></Placemark><Placemark><name>Al Dewan Specialized Dental Clinic </name><Point><gx:drawOrder>1</gx:drawOrder><coordinates>55.761391,24.225461,0</coordinates></Point></Placemark><Placemark><name>Al Manara Dental Clinic</name><Point><gx:drawOrder>1</gx:drawOrder><coordinates>55.760121,24.225467,0</coordinates></Point></Placemark><Placemark><name>Dr. Kamkar Medical & Physiotherapy Center</name><Point><gx:drawOrder>1</gx:drawOrder><coordinates>55.335903,25.290491,0</coordinates></Point></Placemark><Placemark><name>Sawalma Medical Centre</name><Point><gx:drawOrder>1</gx:drawOrder><coordinates>55.274537,25.237495,0</coordinates></Point></Placemark><Placemark><name>Al Zahra Hospital</name><Point><gx:drawOrder>1</gx:drawOrder><coordinates>55.314279,25.279315,0</coordinates></Point></Placemark><Placemark><name>Reem Dental Clinic</name><Point><gx:drawOrder>1</gx:drawOrder><coordinates>55.205891,25.116393,0</coordinates></Point></Placemark><Placemark><name>Dr Madiha Al Haddad Clinic</name><Point><gx:drawOrder>1</gx:drawOrder><coordinates>55.275582,25.237798,0</coordinates></Point></Placemark><Placemark><name>Charly PolyClinic</name><Point><gx:drawOrder>1</gx:drawOrder><coordinates>55.296485,25.240066,0</coordinates></Point></Placemark><Placemark><name>Prime Medical Centre</name><Point><gx:drawOrder>1</gx:drawOrder><coordinates>55.436047,25.233214,0</coordinates></Point></Placemark><Placemark><name>Al Rowaad Dental Center</name><Point><gx:drawOrder>1</gx:drawOrder><coordinates>55.326594,25.2655,0</coordinates></Point></Placemark><Placemark><name>Dr. Mahaveer Mehta Medical Center</name><Point><gx:drawOrder>1</gx:drawOrder><coordinates>55.317496,25.268255,0</coordinates></Point></Placemark><Placemark><name>Maissan Medical Clinic</name><Point><gx:drawOrder>1</gx:drawOrder><coordinates>55.32732,25.264937,0</coordinates></Point></Placemark><Placemark><name>Dr. Hussein Labib Dental Clinic</name><Point><gx:drawOrder>1</gx:drawOrder><coordinates>55.32689,25.262084,0</coordinates></Point></Placemark><Placemark><name>Al Dehyafa specialized Orthodontic & Dental Clinic</name><Point><gx:drawOrder>1</gx:drawOrder><coordinates>55.277788,25.235425,0</coordinates></Point></Placemark><Placemark><name>Netcare Clinic Center</name><Point><gx:drawOrder>1</gx:drawOrder><coordinates>55.276629,25.236772,0</coordinates></Point></Placemark><Placemark><name>Child Learning and Enrichment Medical Center</name><Point><gx:drawOrder>1</gx:drawOrder><coordinates>55.253677,25.207892,0</coordinates></Point></Placemark><Placemark><name>Chiropractic Dubai at Emirates European Medical Centre</name><Point><gx:drawOrder>1</gx:drawOrder><coordinates>55.203831,25.141575,0</coordinates></Point></Placemark><Placemark><name>Cooper Dermatology Clinic</name><Point><gx:drawOrder>1</gx:drawOrder><coordinates>55.2064,25.15022,0</coordinates></Point></Placemark><Placemark><name>Green Care Clinic</name><Point><gx:drawOrder>1</gx:drawOrder><coordinates>55.26999,25.234379,0</coordinates></Point></Placemark><Placemark><name>Infinity Health Clinic</name><Point><gx:drawOrder>1</gx:drawOrder><coordinates>55.232078,25.17643,0</coordinates></Point></Placemark><Placemark><name>Noor Alwasl Clinic</name><Point><gx:drawOrder>1</gx:drawOrder><coordinates>55.216659,25.155015,0</coordinates></Point></Placemark><Placemark><name>Specialist Medical Centre</name><Point><gx:drawOrder>1</gx:drawOrder><coordinates>55.211804,25.149993,0</coordinates></Point></Placemark><Placemark><name>Ultra Care Medical Group - Jumeirah</name><Point><gx:drawOrder>1</gx:drawOrder><coordinates>54.321697,24.459828,0</coordinates></Point></Placemark><Placemark><name>Dubai Sky Clinic Dental Center</name><Point><gx:drawOrder>1</gx:drawOrder><coordinates>55.30152,25.251863,0</coordinates></Point></Placemark><Placemark><name>International Modern Hospital</name><Point><gx:drawOrder>1</gx:drawOrder><coordinates>55.283346,25.248835,0</coordinates></Point></Placemark><Placemark><name>Abbara Polyclinic</name><Point><gx:drawOrder>1</gx:drawOrder><coordinates>55.32733,25.262021,0</coordinates></Point></Placemark><Placemark><name>Al Tadawi Medical Center</name><Point><gx:drawOrder>1</gx:drawOrder><coordinates>55.333482,25.257602,0</coordinates></Point></Placemark><Placemark><name>American British Surgical and Medical Centre</name><Point><gx:drawOrder>1</gx:drawOrder><coordinates>55.329874,25.26614,0</coordinates></Point></Placemark><Placemark><name>Arab - American Center for the Rehabilitation of Children with Disabilities</name><Point><gx:drawOrder>1</gx:drawOrder><coordinates>55.326805,25.26224,0</coordinates></Point></Placemark><Placemark><name>Clinical House Polyclinic</name><Point><gx:drawOrder>1</gx:drawOrder><coordinates>55.331504,25.257077,0</coordinates></Point></Placemark><Placemark><name>Dubai Vision Eye Center</name><Point><gx:drawOrder>1</gx:drawOrder><coordinates>55.330006,25.255541,0</coordinates></Point></Placemark><Placemark><name>Maral Dental Center</name><Point><gx:drawOrder>1</gx:drawOrder><coordinates>55.323825,25.263252,0</coordinates></Point></Placemark><Placemark><name>Ultra Care Medical Group - Diera</name><Point><gx:drawOrder>1</gx:drawOrder><coordinates>55.308649,25.267546,0</coordinates></Point></Placemark><Placemark><name>AlKhayal Medical Centre</name><Point><gx:drawOrder>1</gx:drawOrder><coordinates>55.320282,25.251527,0</coordinates></Point></Placemark><Placemark><name>American Heart Centre</name><Point><gx:drawOrder>1</gx:drawOrder><coordinates>55.317793,25.233516,0</coordinates></Point></Placemark><Placemark><name>BR Medical Suites</name><Point><gx:drawOrder>1</gx:drawOrder><coordinates>55.318007,25.233411,0</coordinates></Point></Placemark><Placemark><name>California Chiropractic & Sports Medicine Centre</name><Point><gx:drawOrder>1</gx:drawOrder><coordinates>55.317965,25.23371,0</coordinates></Point></Placemark><Placemark><name>Child Early Intervention Medical Center</name><Point><gx:drawOrder>1</gx:drawOrder><coordinates>55.31805,25.237864,0</coordinates></Point></Placemark><Placemark><name>Clinic for Health and Medical Care</name><Point><gx:drawOrder>1</gx:drawOrder><coordinates>55.318093,25.233516,0</coordinates></Point></Placemark><Placemark><name>Dr. Rami Hamed Center</name><Point><gx:drawOrder>1</gx:drawOrder><coordinates>55.32114,25.236777,0</coordinates></Point></Placemark><Placemark><name>Dr. Suad Lutfi Dermatology and Laser Clinic, Dubai</name><Point><gx:drawOrder>1</gx:drawOrder><coordinates>55.326841,25.231864,0</coordinates></Point></Placemark><Placemark><name>Dr. Sulaiman Al Habib Medical Centre</name><Point><gx:drawOrder>1</gx:drawOrder><coordinates>55.319796,25.236467,0</coordinates></Point></Placemark><Placemark><name>French Dental Clinic</name><Point><gx:drawOrder>1</gx:drawOrder><coordinates>55.318273,25.234092,0</coordinates></Point></Placemark><Placemark><name>Genesis Perinatal Care Clinic</name><Point><gx:drawOrder>1</gx:drawOrder><coordinates>55.322277,25.229672,0</coordinates></Point></Placemark><Placemark><name>German Clinic</name><Point><gx:drawOrder>1</gx:drawOrder><coordinates>55.317932,25.233487,0</coordinates></Point></Placemark><Placemark><name>German Neuroscience Center</name><Point><gx:drawOrder>1</gx:drawOrder><coordinates>55.318059,25.23297,0</coordinates></Point></Placemark><Placemark><name>Mitera Clinic</name><Point><gx:drawOrder>1</gx:drawOrder><coordinates>55.31826,25.234033,0</coordinates></Point></Placemark><Placemark><name>myPediaclinic</name><Point><gx:drawOrder>1</gx:drawOrder><coordinates>55.318029,25.233963,0</coordinates></Point></Placemark><Placemark><name>New Vision Eye Center</name><Point><gx:drawOrder>1</gx:drawOrder><coordinates>55.319617,25.234758,0</coordinates></Point></Placemark><Placemark><name>Serenity Clinic</name><Point><gx:drawOrder>1</gx:drawOrder><coordinates>55.320031,25.232443,0</coordinates></Point></Placemark><Placemark><name>Uro Diagnostic Clinic</name><Point><gx:drawOrder>1</gx:drawOrder><coordinates>55.317964,25.233011,0</coordinates></Point></Placemark><Placemark><name>Versailles Dental Clinic</name><Point><gx:drawOrder>1</gx:drawOrder><coordinates>55.317828,25.233727,0</coordinates></Point></Placemark><Placemark><name>NMC Hospital - Dubai Investment Park</name><Point><gx:drawOrder>1</gx:drawOrder><coordinates>55.154457,25.005662,0</coordinates></Point></Placemark><Placemark><name>CosmeSurge - Dubai Marina</name><Point><gx:drawOrder>1</gx:drawOrder><coordinates>54.572847,24.403409,0</coordinates></Point></Placemark><Placemark><name>Emirates Hospital - Marina - CosmeSurge and Emirates Clinics </name><Point><gx:drawOrder>1</gx:drawOrder><coordinates>55.237746,25.197292,0</coordinates></Point></Placemark><Placemark><name>Symbiosis Medical Centre</name><Point><gx:drawOrder>1</gx:drawOrder><coordinates>55.396885,25.127636,0</coordinates></Point></Placemark><Placemark><name>GMC Green Community</name><Point><gx:drawOrder>1</gx:drawOrder><coordinates>55.165271,25.005,0</coordinates></Point></Placemark><Placemark><name>Al Aliaa Polyclinic</name><Point><gx:drawOrder>1</gx:drawOrder><coordinates>55.241368,25.202251,0</coordinates></Point></Placemark><Placemark><name>Al Mousa Medical Centre</name><Point><gx:drawOrder>1</gx:drawOrder><coordinates>55.270654,25.235923,0</coordinates></Point></Placemark><Placemark><name>Al Shunnar Plastic Surgery</name><Point><gx:drawOrder>1</gx:drawOrder><coordinates>55.214682,25.167859,0</coordinates></Point></Placemark><Placemark><name>American Center for Psychiatry and Neurology </name><Point><gx:drawOrder>1</gx:drawOrder><coordinates>55.228271,25.203077,0</coordinates></Point></Placemark><Placemark><name>American Excellence Medical & Dental Center</name><Point><gx:drawOrder>1</gx:drawOrder><coordinates>55.225525,25.192515,0</coordinates></Point></Placemark><Placemark><name>Bin Arab Dental Centre - Jumeirah</name><Point><gx:drawOrder>1</gx:drawOrder><coordinates>55.205333,25.157288,0</coordinates></Point></Placemark><Placemark><name>Blue Tree Clinics - Jumeirah Branch</name><Point><gx:drawOrder>1</gx:drawOrder><coordinates>55.195746,25.145332,0</coordinates></Point></Placemark><Placemark><name>British Medical Consulting Centre</name><Point><gx:drawOrder>1</gx:drawOrder><coordinates>55.251746,25.217541,0</coordinates></Point></Placemark><Placemark><name>Cocoona Centre for Aesthetic Transformation</name><Point><gx:drawOrder>1</gx:drawOrder><coordinates>55.223744,25.165911,0</coordinates></Point></Placemark><Placemark><name>Dr. Ehab's Dental Clinic</name><Point><gx:drawOrder>1</gx:drawOrder><coordinates>55.274877,25.235802,0</coordinates></Point></Placemark><Placemark><name>Dr. Humeira Badsha Medical Center</name><Point><gx:drawOrder>1</gx:drawOrder><coordinates>55.238485,25.198573,0</coordinates></Point></Placemark><Placemark><name>Dr. Mazen Pediatric Speciality - Jumeirah</name><Point><gx:drawOrder>1</gx:drawOrder><coordinates>55.247167,25.17922,0</coordinates></Point></Placemark><Placemark><name>Dr. Roze & Associates Dental Clinic</name><Point><gx:drawOrder>1</gx:drawOrder><coordinates>55.201578,25.152131,0</coordinates></Point></Placemark><Placemark><name>Ebsaar Eye Surgery Center</name><Point><gx:drawOrder>1</gx:drawOrder><coordinates>55.261182,25.230565,0</coordinates></Point></Placemark><Placemark><name>Fakih IVF - Dubai</name><Point><gx:drawOrder>1</gx:drawOrder><coordinates>55.258868,25.215836,0</coordinates></Point></Placemark><Placemark><name>General Medical Centre - Dental</name><Point><gx:drawOrder>1</gx:drawOrder><coordinates>55.264778,25.255254,0</coordinates></Point></Placemark><Placemark><name>Healthcare Medical Center (HMC)</name><Point><gx:drawOrder>1</gx:drawOrder><coordinates>55.262789,25.230791,0</coordinates></Point></Placemark><Placemark><name>Jumeira Beach Dental Center</name><Point><gx:drawOrder>1</gx:drawOrder><coordinates>55.258023,25.225478,0</coordinates></Point></Placemark><Placemark><name>MedLine Medical Center</name><Point><gx:drawOrder>1</gx:drawOrder><coordinates>55.270522,25.239824,0</coordinates></Point></Placemark><Placemark><name>Medlink Clinic</name><Point><gx:drawOrder>1</gx:drawOrder><coordinates>55.26274,25.229966,0</coordinates></Point></Placemark><Placemark><name>Minal Medical Centre - Dubai</name><Point><gx:drawOrder>1</gx:drawOrder><coordinates>55.258141,25.214803,0</coordinates></Point></Placemark><Placemark><name>Montreal International Clinics</name><Point><gx:drawOrder>1</gx:drawOrder><coordinates>55.239826,25.200252,0</coordinates></Point></Placemark><Placemark><name>Oris Dental Centre</name><Point><gx:drawOrder>1</gx:drawOrder><coordinates>55.2178,25.172359,0</coordinates></Point></Placemark><Placemark><name>Orthosports Medical Center</name><Point><gx:drawOrder>1</gx:drawOrder><coordinates>55.267646,25.237398,0</coordinates></Point></Placemark><Placemark><name>Seven Dental Centre</name><Point><gx:drawOrder>1</gx:drawOrder><coordinates>55.225088,25.182299,0</coordinates></Point></Placemark><Placemark><name>Standard Medical Clinic</name><Point><gx:drawOrder>1</gx:drawOrder><coordinates>55.203538,25.139452,0</coordinates></Point></Placemark><Placemark><name>Synergy Integrated Medical Center</name><Point><gx:drawOrder>1</gx:drawOrder><coordinates>55.206827,25.142357,0</coordinates></Point></Placemark><Placemark><name>The Right Bite Nutrition Centre</name><Point><gx:drawOrder>1</gx:drawOrder><coordinates>55.272324,25.242813,0</coordinates></Point></Placemark><Placemark><name>General Medical Centre - Medical</name><Point><gx:drawOrder>1</gx:drawOrder><coordinates>55.264778,25.255254,0</coordinates></Point></Placemark><Placemark><name>VenoCare Vascular Clinic</name><Point><gx:drawOrder>1</gx:drawOrder><coordinates>55.270086,25.239553,0</coordinates></Point></Placemark><Placemark><name>Vilafortuny Laser Centre</name><Point><gx:drawOrder>1</gx:drawOrder><coordinates>55.231997,25.176249,0</coordinates></Point></Placemark><Placemark><name>Allo Doctors French Medical Services</name><Point><gx:drawOrder>1</gx:drawOrder><coordinates>55.149039,25.07903,0</coordinates></Point></Placemark><Placemark><name>Dr. Amal Gynaecology and Obstetrics Clinic</name><Point><gx:drawOrder>1</gx:drawOrder><coordinates>55.303025,25.244951,0</coordinates></Point></Placemark><Placemark><name>Life Medical Center</name><Point><gx:drawOrder>1</gx:drawOrder><coordinates>55.151403,25.077614,0</coordinates></Point></Placemark><Placemark><name>Dr. Joy Dental Clinic - Mirdiff</name><Point><gx:drawOrder>1</gx:drawOrder><coordinates>55.418409,25.217254,0</coordinates></Point></Placemark><Placemark><name>Dr. Kamkar Child Wellness Center</name><Point><gx:drawOrder>1</gx:drawOrder><coordinates>55.423279,25.230721,0</coordinates></Point></Placemark><Placemark><name>American Hospital Dubai</name><Point><gx:drawOrder>1</gx:drawOrder><coordinates>55.313312,25.235661,0</coordinates></Point></Placemark><Placemark><name>Dr. Hibah Shata Specialized Dental Clinic</name><Point><gx:drawOrder>1</gx:drawOrder><coordinates>55.329167,25.253056,0</coordinates></Point></Placemark><Placemark><name>Al Borj Medical Centre</name><Point><gx:drawOrder>1</gx:drawOrder><coordinates>55.26559,25.19966,0</coordinates></Point></Placemark><Placemark><name>Mouafaq Bright Teeth Clinic</name><Point><gx:drawOrder>1</gx:drawOrder><coordinates>55.277414,25.213095,0</coordinates></Point></Placemark><Placemark><name>Bissan Dental Center</name><Point><gx:drawOrder>1</gx:drawOrder><coordinates>55.177202,25.100173,0</coordinates></Point></Placemark><Placemark><name>GMC Tecom</name><Point><gx:drawOrder>1</gx:drawOrder><coordinates>55.177009,25.099434,0</coordinates></Point></Placemark><Placemark><name>Al Biraa Clinic</name><Point><gx:drawOrder>1</gx:drawOrder><coordinates>55.207848,25.143578,0</coordinates></Point></Placemark><Placemark><name>Nathani Medical Centre</name><Point><gx:drawOrder>1</gx:drawOrder><coordinates>55.390491,25.362234,0</coordinates></Point></Placemark><Placemark><name>American Center for Psychiatry and Neurology </name><Point><gx:drawOrder>1</gx:drawOrder><coordinates>55.427957,25.342727,0</coordinates></Point></Placemark><Placemark><name>Dr. Suad Lutfi Dermatology and Laser Clinic, Sharjah</name><Point><gx:drawOrder>1</gx:drawOrder><coordinates>55.326841,25.231864,0</coordinates></Point></Placemark><Placemark><name>Ahlan Dental Medical Centre</name><Point><gx:drawOrder>1</gx:drawOrder><coordinates>55.392015,25.358124,0</coordinates></Point></Placemark><Placemark><name>Al Atta International Medical Center</name><Point><gx:drawOrder>1</gx:drawOrder><coordinates>55.387273,25.336986,0</coordinates></Point></Placemark><Placemark><name>Al - Bishara Medical Centre</name><Point><gx:drawOrder>1</gx:drawOrder><coordinates>55.380363,25.325485,0</coordinates></Point></Placemark><Placemark><name>Al Mariffa Medical Centre </name><Point><gx:drawOrder>1</gx:drawOrder><coordinates>55.371094,25.362641,0</coordinates></Point></Placemark><Placemark><name>Al Qaser Medical Center</name><Point><gx:drawOrder>1</gx:drawOrder><coordinates>55.379033,25.327444,0</coordinates></Point></Placemark><Placemark><name>Bissan Medical Center</name><Point><gx:drawOrder>1</gx:drawOrder><coordinates>55.385685,25.342145,0</coordinates></Point></Placemark><Placemark><name>Daif Vision Eye Center</name><Point><gx:drawOrder>1</gx:drawOrder><coordinates>55.384483,25.329752,0</coordinates></Point></Placemark><Placemark><name>Eve Fertility Center</name><Point><gx:drawOrder>1</gx:drawOrder><coordinates>55.386304,25.339679,0</coordinates></Point></Placemark><Placemark><name>French Medical Center - Sharjah</name><Point><gx:drawOrder>1</gx:drawOrder><coordinates>55.386871,25.337728,0</coordinates></Point></Placemark><Placemark><name>Gentle Care Medical Center</name><Point><gx:drawOrder>1</gx:drawOrder><coordinates>55.386204,25.339973,0</coordinates></Point></Placemark><Placemark><name>Smile Care Clinic</name><Point><gx:drawOrder>1</gx:drawOrder><coordinates>55.400823,25.332591,0</coordinates></Point></Placemark><Placemark><name>Al Shamil Medical Center</name><Point><gx:drawOrder>1</gx:drawOrder><coordinates>55.428364,25.341195,0</coordinates></Point></Placemark><Placemark><name>University Hospital Sharjah</name><Point><gx:drawOrder>1</gx:drawOrder><coordinates>55.490226,25.299027,0</coordinates></Point></Placemark><Placemark><name>Wafi Ph.</name><Point><gx:drawOrder>1</gx:drawOrder><coordinates>55.285799,25.22294,0</coordinates></Point></Placemark><Placemark><name>Al Nejoom</name><Point><gx:drawOrder>1</gx:drawOrder><coordinates>55.380312,25.299786,0</coordinates></Point></Placemark><Placemark><name>Al-Mubark Center</name><Point><gx:drawOrder>1</gx:drawOrder><coordinates>55.393091,25.364818,0</coordinates></Point></Placemark><Placemark><name>Al Manara Pharmacy</name><Point><gx:drawOrder>1</gx:drawOrder><coordinates>55.321876,25.229844,0</coordinates></Point></Placemark><Placemark><name>Bin Sina Pharmacy</name><Point><gx:drawOrder>1</gx:drawOrder><coordinates>55.197885,25.107642,0</coordinates></Point></Placemark><Placemark><name>Dar Al Hekma Pharmacy</name><Point><gx:drawOrder>1</gx:drawOrder><coordinates>55.380725,25.323801,0</coordinates></Point></Placemark><Placemark><name>Life Health Care Group</name><Point><gx:drawOrder>1</gx:drawOrder><coordinates>55.225777,25.107829,0</coordinates></Point></Placemark><Placemark><name>Oasis Hospital</name><Point><gx:drawOrder>1</gx:drawOrder><coordinates>55.75973,24.206927,0</coordinates></Point></Placemark><Placemark><name>Al Fujairah Obstetrics Hospital</name><Point><gx:drawOrder>1</gx:drawOrder><coordinates>56.343067,25.126055,0</coordinates></Point></Placemark><Placemark><name>Eve Fertility Center</name><Point><gx:drawOrder>1</gx:drawOrder><coordinates>55.386283,25.339703,0</coordinates></Point></Placemark><Placemark><name>Concieve Hospital</name><Point><gx:drawOrder>1</gx:drawOrder><coordinates>55.371365,25.308099,0</coordinates></Point></Placemark><Placemark><name>American Academy of Cosmetic Surgery Hospital</name><Point><gx:drawOrder>1</gx:drawOrder><coordinates>55.31954,25.232654,0</coordinates></Point></Placemark><Placemark><name>W.Wilson Specialized Hospital</name><Point><gx:drawOrder>1</gx:drawOrder><coordinates>55.371715,25.30846,0</coordinates></Point></Placemark><Placemark><name>Dr. Rasools Healthcare Centre</name><Point><gx:drawOrder>1</gx:drawOrder><coordinates>55.309381,25.267033,0</coordinates></Point></Placemark><Placemark><name>Lakshmi's Medical Clinic</name><Point><gx:drawOrder>1</gx:drawOrder><coordinates>55.404134,25.321461,0</coordinates></Point></Placemark><Placemark><name>Abubakr Clinic</name><Point><gx:drawOrder>1</gx:drawOrder><coordinates>55.391277,25.355277,0</coordinates></Point></Placemark><Placemark><name>Saif Clinic</name><Point><gx:drawOrder>1</gx:drawOrder><coordinates>55.394594,25.358728,0</coordinates></Point></Placemark><Placemark><name>Noor Clinic</name><Point><gx:drawOrder>1</gx:drawOrder><coordinates>55.390944,25.361202,0</coordinates></Point></Placemark><Placemark><name>Dr. Rania Al Qedrah Specialized Clinic</name><Point><gx:drawOrder>1</gx:drawOrder><coordinates>55.38989,25.33278,0</coordinates></Point></Placemark><Placemark><name>Dr. Fatema Abu Shouk Clinci</name><Point><gx:drawOrder>1</gx:drawOrder><coordinates>55.400117,25.364103,0</coordinates></Point></Placemark><Placemark><name>Al-Mahmood Medical Center</name><Point><gx:drawOrder>1</gx:drawOrder><coordinates>55.394307,25.358322,0</coordinates></Point></Placemark><Placemark><name>Al Darary Medical Clinic</name><Point><gx:drawOrder>1</gx:drawOrder><coordinates>55.39872,25.319131,0</coordinates></Point></Placemark><Placemark><name>Ramzy Assi Dental Clinic</name><Point><gx:drawOrder>1</gx:drawOrder><coordinates>55.392787,25.333335,0</coordinates></Point></Placemark><Placemark><name>AL Ashbal Dental Clinic</name><Point><gx:drawOrder>1</gx:drawOrder><coordinates>55.265449,25.199177,0</coordinates></Point></Placemark><Placemark><name>Al Daya Poly Clinic</name><Point><gx:drawOrder>1</gx:drawOrder><coordinates>55.309753,25.275737,0</coordinates></Point></Placemark><Placemark><name>Al Jameela Poly Clinic</name><Point><gx:drawOrder>1</gx:drawOrder><coordinates>55.313491,25.276703,0</coordinates></Point></Placemark><Placemark><name>Al Khaleej National School Clinic</name><Point><gx:drawOrder>1</gx:drawOrder><coordinates>54.347839,24.46494,0</coordinates></Point></Placemark><Placemark><name>Al Naseem General Clinic</name><Point><gx:drawOrder>1</gx:drawOrder><coordinates>55.309152,25.273556,0</coordinates></Point></Placemark><Placemark><name>Al Rafa Poly Clinic</name><Point><gx:drawOrder>1</gx:drawOrder><coordinates>55.405962,25.163697,0</coordinates></Point></Placemark><Placemark><name>Al Rowaad Dental Clinic</name><Point><gx:drawOrder>1</gx:drawOrder><coordinates>55.326503,25.264891,0</coordinates></Point></Placemark><Placemark><name>Al Sanaiya Medical Clinic</name><Point><gx:drawOrder>1</gx:drawOrder><coordinates>55.772464,24.222247,0</coordinates></Point></Placemark><Placemark><name>Al Sayegh Medical Center</name><Point><gx:drawOrder>1</gx:drawOrder><coordinates>55.276113,25.214591,0</coordinates></Point></Placemark><Placemark><name>Al Shaab Clinic</name><Point><gx:drawOrder>1</gx:drawOrder><coordinates>55.297976,25.271663,0</coordinates></Point></Placemark><Placemark><name>Al Shunnar Polyclinic</name><Point><gx:drawOrder>1</gx:drawOrder><coordinates>55.324599,25.258879,0</coordinates></Point></Placemark><Placemark><name>Al Taif Medical Clinic</name><Point><gx:drawOrder>1</gx:drawOrder><coordinates>55.308019,25.273938,0</coordinates></Point></Placemark><Placemark><name>Ashokan Medical Clinic</name><Point><gx:drawOrder>1</gx:drawOrder><coordinates>55.308931,25.274941,0</coordinates></Point></Placemark><Placemark><name>Belgium Medical Services</name><Point><gx:drawOrder>1</gx:drawOrder><coordinates>55.32645,25.231188,0</coordinates></Point></Placemark><Placemark><name>City Point International</name><Point><gx:drawOrder>1</gx:drawOrder><coordinates>55.299956,25.257491,0</coordinates></Point></Placemark><Placemark><name>Deira Medical Clinic</name><Point><gx:drawOrder>1</gx:drawOrder><coordinates>55.333901,25.25292,0</coordinates></Point></Placemark><Placemark><name>Derma Care Skin Center</name><Point><gx:drawOrder>1</gx:drawOrder><coordinates>55.262675,25.221079,0</coordinates></Point></Placemark><Placemark><name>Digital Polyclinic</name><Point><gx:drawOrder>1</gx:drawOrder><coordinates>55.315164,25.244783,0</coordinates></Point></Placemark><Placemark><name>Dr. Abdul Rahman Shihabi Clinic</name><Point><gx:drawOrder>1</gx:drawOrder><coordinates>55.296442,25.256494,0</coordinates></Point></Placemark><Placemark><name>Dr. Joy Dental Clinic</name><Point><gx:drawOrder>1</gx:drawOrder><coordinates>55.208214,25.144188,0</coordinates></Point></Placemark><Placemark><name>Dr.Maysoon Al-Kaisi Clinic</name><Point><gx:drawOrder>1</gx:drawOrder><coordinates>55.330041,25.267318,0</coordinates></Point></Placemark><Placemark><name>Dr. Motiwalla Dental Clinic</name><Point><gx:drawOrder>1</gx:drawOrder><coordinates>55.315762,25.263225,0</coordinates></Point></Placemark><Placemark><name>Dr.Nadia Emile Clinic</name><Point><gx:drawOrder>1</gx:drawOrder><coordinates>55.309296,25.266616,0</coordinates></Point></Placemark><Placemark><name>Dr.Nasser Abdul Ghani Dental Clinic</name><Point><gx:drawOrder>1</gx:drawOrder><coordinates>55.322504,25.263514,0</coordinates></Point></Placemark><Placemark><name>Dr. Nouhal Kamel Ibrahim Clinic</name><Point><gx:drawOrder>1</gx:drawOrder><coordinates>55.3299,25.2556,0</coordinates></Point></Placemark><Placemark><name>Dr. Rafih Khoury Dental Clinic</name><Point><gx:drawOrder>1</gx:drawOrder><coordinates>55.326478,25.262601,0</coordinates></Point></Placemark><Placemark><name>Dr. Raja Asfour Clinic</name><Point><gx:drawOrder>1</gx:drawOrder><coordinates>55.319409,25.266195,0</coordinates></Point></Placemark><Placemark><name>Dr. Ravaris Dental Clinic</name><Point><gx:drawOrder>1</gx:drawOrder><coordinates>55.327642,25.254574,0</coordinates></Point></Placemark><Placemark><name>Dr.Zuhair Sikafi Clinic</name><Point><gx:drawOrder>1</gx:drawOrder><coordinates>55.296442,25.256494,0</coordinates></Point></Placemark><Placemark><name>Dr. Zulay Clinic</name><Point><gx:drawOrder>1</gx:drawOrder><coordinates>55.327447,25.26217,0</coordinates></Point></Placemark><Placemark><name>Dubai London Clinic - Jumeirah</name><Point><gx:drawOrder>1</gx:drawOrder><coordinates>55.251521,25.204458,0</coordinates></Point></Placemark><Placemark><name>Dubai Phsiotheraphy Clinic</name><Point><gx:drawOrder>1</gx:drawOrder><coordinates>55.32424,25.230206,0</coordinates></Point></Placemark><Placemark><name>Dubai Podiatry Clenter</name><Point><gx:drawOrder>1</gx:drawOrder><coordinates>55.199276,25.150468,0</coordinates></Point></Placemark><Placemark><name>Dubai Smile Dental Center</name><Point><gx:drawOrder>1</gx:drawOrder><coordinates>55.224844,25.181854,0</coordinates></Point></Placemark><Placemark><name>Dubai Transport Company Clinic</name><Point><gx:drawOrder>1</gx:drawOrder><coordinates>55.33113,25.27032,0</coordinates></Point></Placemark><Placemark><name>Emirates Diagnostic Clinic</name><Point><gx:drawOrder>1</gx:drawOrder><coordinates>55.278665,25.233957,0</coordinates></Point></Placemark><Placemark><name>Future Medical Center</name><Point><gx:drawOrder>1</gx:drawOrder><coordinates>55.316403,25.263867,0</coordinates></Point></Placemark><Placemark><name>Gargash Obstetrics Gynecology Clinic</name><Point><gx:drawOrder>1</gx:drawOrder><coordinates>55.274537,25.237495,0</coordinates></Point></Placemark><Placemark><name>Liberty Dental Clinic - Jumeirah</name><Point><gx:drawOrder>1</gx:drawOrder><coordinates>55.228942,25.187202,0</coordinates></Point></Placemark><Placemark><name>Malik Medical Clinic</name><Point><gx:drawOrder>1</gx:drawOrder><coordinates>55.32417,25.278411,0</coordinates></Point></Placemark><Placemark><name>Mourany Orthodontic & Dental Center</name><Point><gx:drawOrder>1</gx:drawOrder><coordinates>55.737437,24.225821,0</coordinates></Point></Placemark><Placemark><name>New Derma Health International Medical Center</name><Point><gx:drawOrder>1</gx:drawOrder><coordinates>55.277464,25.235489,0</coordinates></Point></Placemark><Placemark><name>Dr. Nasser Najafpour Dental Clinic</name><Point><gx:drawOrder>1</gx:drawOrder><coordinates>55.328455,25.277306,0</coordinates></Point></Placemark><Placemark><name>New Al Fathima Medical Center</name><Point><gx:drawOrder>1</gx:drawOrder><coordinates>55.297491,25.258936,0</coordinates></Point></Placemark><Placemark><name>Dr . Amal Alias Clinic</name><Point><gx:drawOrder>1</gx:drawOrder><coordinates>55.138986,25.068933,0</coordinates></Point></Placemark><Placemark><name>Al Shunnar Clinic</name><Point><gx:drawOrder>1</gx:drawOrder><coordinates>55.214682,25.167859,0</coordinates></Point></Placemark><Placemark><name>Al Razi Polyclinic</name><Point><gx:drawOrder>1</gx:drawOrder><coordinates>55.31999,25.265462,0</coordinates></Point></Placemark><Placemark><name>Dr. Anand Shenoy Dental Clinic</name><Point><gx:drawOrder>1</gx:drawOrder><coordinates>55.277464,25.235489,0</coordinates></Point></Placemark><Placemark><name>Drs.Nicolas & Asp Dental Center</name><Point><gx:drawOrder>1</gx:drawOrder><coordinates>55.325844,25.231117,0</coordinates></Point></Placemark><Placemark><name>Dr. Anwar Atari Clinic</name><Point><gx:drawOrder>1</gx:drawOrder><coordinates>55.274537,25.237495,0</coordinates></Point></Placemark><Placemark><name>Scandcare Dental Clinic</name><Point><gx:drawOrder>1</gx:drawOrder><coordinates>55.271787,25.231273,0</coordinates></Point></Placemark><Placemark><name>Al Waha Clinic</name><Point><gx:drawOrder>1</gx:drawOrder><coordinates>55.301137,25.256346,0</coordinates></Point></Placemark><Placemark><name>Dr.Baha Specialized Dental</name><Point><gx:drawOrder>1</gx:drawOrder><coordinates>55.277197,25.236767,0</coordinates></Point></Placemark><Placemark><name>Jumeriah American Clinic</name><Point><gx:drawOrder>1</gx:drawOrder><coordinates>55.261534,25.230231,0</coordinates></Point></Placemark><Placemark><name>Haddad Medical Clinic</name><Point><gx:drawOrder>1</gx:drawOrder><coordinates>55.308054,25.268886,0</coordinates></Point></Placemark><Placemark><name>Dubai Medical Village</name><Point><gx:drawOrder>1</gx:drawOrder><coordinates>55.224744,25.181832,0</coordinates></Point></Placemark><Placemark><name>Josephs Qusais Polyclinic</name><Point><gx:drawOrder>1</gx:drawOrder><coordinates>55.376386,25.271212,0</coordinates></Point></Placemark><Placemark><name>Dr.Kayasseh Medical Clinic</name><Point><gx:drawOrder>1</gx:drawOrder><coordinates>55.276134,25.23748,0</coordinates></Point></Placemark><Placemark><name>The Mercato Family Clinic</name><Point><gx:drawOrder>1</gx:drawOrder><coordinates>55.2534,25.217165,0</coordinates></Point></Placemark><Placemark><name>Maisan Medical Clinic</name><Point><gx:drawOrder>1</gx:drawOrder><coordinates>55.325809,25.262997,0</coordinates></Point></Placemark><Placemark><name>Al Amal Medical Clinics</name><Point><gx:drawOrder>1</gx:drawOrder><coordinates>55.275694,25.234372,0</coordinates></Point></Placemark><Placemark><name>Goze Dental Clinic</name><Point><gx:drawOrder>1</gx:drawOrder><coordinates>55.316395,25.265169,0</coordinates></Point></Placemark><Placemark><name>American Dental Clinic</name><Point><gx:drawOrder>1</gx:drawOrder><coordinates>55.254942,25.220554,0</coordinates></Point></Placemark><Placemark><name>Gulf American Clinic</name><Point><gx:drawOrder>1</gx:drawOrder><coordinates>55.261534,25.230231,0</coordinates></Point></Placemark><Placemark><name>Al Raha Clinic</name><Point><gx:drawOrder>1</gx:drawOrder><coordinates>55.44123,25.404652,0</coordinates></Point></Placemark><Placemark><name>Al Hikma Clinic</name><Point><gx:drawOrder>1</gx:drawOrder><coordinates>55.329889,25.263676,0</coordinates></Point></Placemark><Placemark><name>Aster Medical Centre â€“ Al Aweer</name><Point><gx:drawOrder>1</gx:drawOrder><coordinates>55.356373,25.184864,0</coordinates></Point></Placemark><Placemark><name>Dr. Salem Al Yacoubi</name><Point><gx:drawOrder>1</gx:drawOrder><coordinates>55.30217,25.236884,0</coordinates></Point></Placemark><Placemark><name>Nasa Clinic</name><Point><gx:drawOrder>1</gx:drawOrder><coordinates>55.307705,25.273788,0</coordinates></Point></Placemark><Placemark><name>Al Abrah Clinic</name><Point><gx:drawOrder>1</gx:drawOrder><coordinates>55.294607,25.268944,0</coordinates></Point></Placemark><Placemark><name>Harley International Medical Clinic</name><Point><gx:drawOrder>1</gx:drawOrder><coordinates>55.28619,25.249281,0</coordinates></Point></Placemark><Placemark><name>CosmeSurge</name><Point><gx:drawOrder>1</gx:drawOrder><coordinates>55.141952,25.085316,0</coordinates></Point></Placemark><Placemark><name>Abu Dhabi Dental Clinic</name><Point><gx:drawOrder>1</gx:drawOrder><coordinates>54.434101,24.429626,0</coordinates></Point></Placemark><Placemark><name>Al Wafi Dental Clinic</name><Point><gx:drawOrder>1</gx:drawOrder><coordinates>54.368645,24.49085,0</coordinates></Point></Placemark><Placemark><name>Shammas Dental Clinic</name><Point><gx:drawOrder>1</gx:drawOrder><coordinates>54.370736,24.490718,0</coordinates></Point></Placemark><Placemark><name>Al Dharfra Specialist Dental Clinic</name><Point><gx:drawOrder>1</gx:drawOrder><coordinates>54.379639,24.46098,0</coordinates></Point></Placemark><Placemark><name>Al Rahba Dental Clinic</name><Point><gx:drawOrder>1</gx:drawOrder><coordinates>54.638419,24.294567,0</coordinates></Point></Placemark><Placemark><name>Smile Clinic</name><Point><gx:drawOrder>1</gx:drawOrder><coordinates>54.33515,24.485633,0</coordinates></Point></Placemark><Placemark><name>Swiss Dental Medical centre</name><Point><gx:drawOrder>1</gx:drawOrder><coordinates>54.366651,24.466687,0</coordinates></Point></Placemark><Placemark><name>American Adcance Dental Center</name><Point><gx:drawOrder>1</gx:drawOrder><coordinates>54.338549,24.462321,0</coordinates></Point></Placemark><Placemark><name>Dr.Ishaq Al Dajani Clinc</name><Point><gx:drawOrder>1</gx:drawOrder><coordinates>54.360054,24.491643,0</coordinates></Point></Placemark><Placemark><name>Abdul Fattah Tayeh Clinic</name><Point><gx:drawOrder>1</gx:drawOrder><coordinates>54.354641,24.478307,0</coordinates></Point></Placemark><Placemark><name>ADCO, ADGAS, ADMA, OPCO Clinic</name><Point><gx:drawOrder>1</gx:drawOrder><coordinates>54.343634,24.473685,0</coordinates></Point></Placemark><Placemark><name>Abu Dhabi Psychiatry Clinic</name><Point><gx:drawOrder>1</gx:drawOrder><coordinates>54.362384,24.461091,0</coordinates></Point></Placemark><Placemark><name>Ibrahim Awad Clinic</name><Point><gx:drawOrder>1</gx:drawOrder><coordinates>54.355124,24.479924,0</coordinates></Point></Placemark><Placemark><name>Majzoub Opticals</name><Point><gx:drawOrder>1</gx:drawOrder><coordinates>54.361688,24.492632,0</coordinates></Point></Placemark><Placemark><name>Al Mahdi Medical Clinic</name><Point><gx:drawOrder>1</gx:drawOrder><coordinates>55.763007,24.225818,0</coordinates></Point></Placemark><Placemark><name>Al Gharafa Clinic</name><Point><gx:drawOrder>1</gx:drawOrder><coordinates>55.4409666,25.4063641,0</coordinates></Point></Placemark><Placemark><name>Al Salam New Clinic</name><Point><gx:drawOrder>1</gx:drawOrder><coordinates>55.765099,24.224311,0</coordinates></Point></Placemark><Placemark><name>Dubai London Clinic - Dental Al Wasl</name><Point><gx:drawOrder>1</gx:drawOrder><coordinates>55.251327,25.204065,0</coordinates></Point></Placemark><Placemark><name>Dubai London Clinic</name><Point><gx:drawOrder>1</gx:drawOrder><coordinates>55.35644,25.222706,0</coordinates></Point></Placemark><Placemark><name>Al Farabi Medical Clinic</name><Point><gx:drawOrder>1</gx:drawOrder><coordinates>55.77092,24.222494,0</coordinates></Point></Placemark><Placemark><name>Al Ain New Medical Clinic</name><Point><gx:drawOrder>1</gx:drawOrder><coordinates>55.770064,24.222313,0</coordinates></Point></Placemark><Placemark><name>Al Ain Polyclinic</name><Point><gx:drawOrder>1</gx:drawOrder><coordinates>55.729372,24.223993,0</coordinates></Point></Placemark><Placemark><name>Al Rayyan Medical Clinic</name><Point><gx:drawOrder>1</gx:drawOrder><coordinates>54.534674,24.327096,0</coordinates></Point></Placemark><Placemark><name>Besiso Dental Clinic</name><Point><gx:drawOrder>1</gx:drawOrder><coordinates>54.35102,24.481311,0</coordinates></Point></Placemark><Placemark><name>Firas Dental Clinic</name><Point><gx:drawOrder>1</gx:drawOrder><coordinates>54.361421,24.487825,0</coordinates></Point></Placemark><Placemark><name>Hakim Medical Dental Clinic</name><Point><gx:drawOrder>1</gx:drawOrder><coordinates>54.371416,24.495002,0</coordinates></Point></Placemark><Placemark><name>Ansam Dental Clinic</name><Point><gx:drawOrder>1</gx:drawOrder><coordinates>54.367529,24.489347,0</coordinates></Point></Placemark><Placemark><name>Victory Dental Clinic</name><Point><gx:drawOrder>1</gx:drawOrder><coordinates>54.357899,24.490145,0</coordinates></Point></Placemark><Placemark><name>Specialized Clinic Of Dental Implant</name><Point><gx:drawOrder>1</gx:drawOrder><coordinates>55.27162,25.241098,0</coordinates></Point></Placemark><Placemark><name>Al Saraf Medical Center</name><Point><gx:drawOrder>1</gx:drawOrder><coordinates>55.392155,25.329127,0</coordinates></Point></Placemark><Placemark><name>Scottish Dental Center</name><Point><gx:drawOrder>1</gx:drawOrder><coordinates>55.727034,24.223491,0</coordinates></Point></Placemark><Placemark><name>Al Jawhara Clinic</name><Point><gx:drawOrder>1</gx:drawOrder><coordinates>55.437633,25.391675,0</coordinates></Point></Placemark><Placemark><name>Al Rashid Khalid Clinic</name><Point><gx:drawOrder>1</gx:drawOrder><coordinates>55.392469,25.345068,0</coordinates></Point></Placemark><Placemark><name>Ahlan  Dental Medical Center</name><Point><gx:drawOrder>1</gx:drawOrder><coordinates>55.391865,25.357522,0</coordinates></Point></Placemark><Placemark><name>Medical House For Diagnosis & Treatment</name><Point><gx:drawOrder>1</gx:drawOrder><coordinates>55.400294,25.364411,0</coordinates></Point></Placemark><Placemark><name>Khalid Paediatric Clinic</name><Point><gx:drawOrder>1</gx:drawOrder><coordinates>55.733768,24.232965,0</coordinates></Point></Placemark><Placemark><name>Jehad International Medical</name><Point><gx:drawOrder>1</gx:drawOrder><coordinates>55.280406,25.220144,0</coordinates></Point></Placemark><Placemark><name>Al Mariya Polyclinic</name><Point><gx:drawOrder>1</gx:drawOrder><coordinates>55.320295,25.25993,0</coordinates></Point></Placemark><Placemark><name>CosmeSurge & Emirates Clinics</name><Point><gx:drawOrder>1</gx:drawOrder><coordinates>55.141952,25.085316,0</coordinates></Point></Placemark><Placemark><name>Advanced American Dental Center</name><Point><gx:drawOrder>1</gx:drawOrder><coordinates>54.33856,24.462297,0</coordinates></Point></Placemark><Placemark><name>Advanced Speciality Clinic</name><Point><gx:drawOrder>1</gx:drawOrder><coordinates>55.222669,25.179037,0</coordinates></Point></Placemark><Placemark><name>VeinCure Clinic</name><Point><gx:drawOrder>1</gx:drawOrder><coordinates>55.141462,25.07233,0</coordinates></Point></Placemark><Placemark><name>Aesthetica Clinic - Dubai Healthcare City</name><Point><gx:drawOrder>1</gx:drawOrder><coordinates>55.324082,25.230265,0</coordinates></Point></Placemark><Placemark><name>Counselling & Development Clinic</name><Point><gx:drawOrder>1</gx:drawOrder><coordinates>55.233351,25.192003,0</coordinates></Point></Placemark><Placemark><name>Al Thiqa Clinic</name><Point><gx:drawOrder>1</gx:drawOrder><coordinates>55.760386,24.227379,0</coordinates></Point></Placemark><Placemark><name>Solanki Dental Centre</name><Point><gx:drawOrder>1</gx:drawOrder><coordinates>55.430616,25.354809,0</coordinates></Point></Placemark><Placemark><name>Shanthi Medical Center</name><Point><gx:drawOrder>1</gx:drawOrder><coordinates>55.393388,25.338712,0</coordinates></Point></Placemark><Placemark><name>Abdulla Al Mushad Clinic</name><Point><gx:drawOrder>1</gx:drawOrder><coordinates>55.398819,25.33367,0</coordinates></Point></Placemark><Placemark><name>Yousif Ibrahim Clinic</name><Point><gx:drawOrder>1</gx:drawOrder><coordinates>55.3969,25.361602,0</coordinates></Point></Placemark><Placemark><name>Al Safaa Clinic</name><Point><gx:drawOrder>1</gx:drawOrder><coordinates>55.238434,25.189559,0</coordinates></Point></Placemark><Placemark><name>Abdu Al Ghani Clinic</name><Point><gx:drawOrder>1</gx:drawOrder><coordinates>55.322504,25.263514,0</coordinates></Point></Placemark><Placemark><name>Al Baraka clinic</name><Point><gx:drawOrder>1</gx:drawOrder><coordinates>55.975585,25.802886,0</coordinates></Point></Placemark><Placemark><name>Sai Janish Clinic</name><Point><gx:drawOrder>1</gx:drawOrder><coordinates>55.387283,25.35663,0</coordinates></Point></Placemark><Placemark><name>A. Bisher Center</name><Point><gx:drawOrder>1</gx:drawOrder><coordinates>55.398914,25.333799,0</coordinates></Point></Placemark><Placemark><name>S.Muwafi Clinic</name><Point><gx:drawOrder>1</gx:drawOrder><coordinates>55.385812,25.340969,0</coordinates></Point></Placemark><Placemark><name>Al Widad Clinic</name><Point><gx:drawOrder>1</gx:drawOrder><coordinates>55.307,25.2407,0</coordinates></Point></Placemark><Placemark><name>Oras Sharif Clinic</name><Point><gx:drawOrder>1</gx:drawOrder><coordinates>55.404445,25.343037,0</coordinates></Point></Placemark><Placemark><name>Rabha Al Saegh Clinic</name><Point><gx:drawOrder>1</gx:drawOrder><coordinates>55.382906,25.32366,0</coordinates></Point></Placemark><Placemark><name>Scottish Dental Center</name><Point><gx:drawOrder>1</gx:drawOrder><coordinates>55.38635,25.344827,0</coordinates></Point></Placemark><Placemark><name>Al Sehoul Orthodontic & Dental Center</name><Point><gx:drawOrder>1</gx:drawOrder><coordinates>55.321242,25.265142,0</coordinates></Point></Placemark><Placemark><name>Al Helal Polyclinic</name><Point><gx:drawOrder>1</gx:drawOrder><coordinates>55.442464,25.411081,0</coordinates></Point></Placemark><Placemark><name>Al Asria Eye Clinic</name><Point><gx:drawOrder>1</gx:drawOrder><coordinates>55.760077,24.228122,0</coordinates></Point></Placemark><Placemark><name>Dubai Sky Clinic</name><Point><gx:drawOrder>1</gx:drawOrder><coordinates>55.30152,25.251863,0</coordinates></Point></Placemark><Placemark><name>Tower Clinic FZ LLC</name><Point><gx:drawOrder>1</gx:drawOrder><coordinates>55.318093,25.233516,0</coordinates></Point></Placemark><Placemark><name>Imperial Healthcare Institute</name><Point><gx:drawOrder>1</gx:drawOrder><coordinates>55.326504,25.231866,0</coordinates></Point></Placemark><Placemark><name>Al Shunnar Plastic Surgery</name><Point><gx:drawOrder>1</gx:drawOrder><coordinates>55.214682,25.167859,0</coordinates></Point></Placemark><Placemark><name>Dr. Abdul Wahad Mohd Clinic</name><Point><gx:drawOrder>1</gx:drawOrder><coordinates>55.328982,25.262375,0</coordinates></Point></Placemark><Placemark><name>Al Qudra Medical Centre</name><Point><gx:drawOrder>1</gx:drawOrder><coordinates>55.282213,25.223158,0</coordinates></Point></Placemark><Placemark><name>Bani Yas Medical Clinic</name><Point><gx:drawOrder>1</gx:drawOrder><coordinates>55.310394,25.267072,0</coordinates></Point></Placemark><Placemark><name>Dubai Modern High School</name><Point><gx:drawOrder>1</gx:drawOrder><coordinates>55.376234,25.153438,0</coordinates></Point></Placemark><Placemark><name>Al Muraqabat Dental Center</name><Point><gx:drawOrder>1</gx:drawOrder><coordinates>55.329359,25.264447,0</coordinates></Point></Placemark><Placemark><name>Salah Medical Clinic</name><Point><gx:drawOrder>1</gx:drawOrder><coordinates>55.31929,25.262152,0</coordinates></Point></Placemark><Placemark><name>Al Falah Medical Clinic</name><Point><gx:drawOrder>1</gx:drawOrder><coordinates>55.306886,25.268241,0</coordinates></Point></Placemark><Placemark><name>Al Kazim Clinic</name><Point><gx:drawOrder>1</gx:drawOrder><coordinates>55.303148,25.271695,0</coordinates></Point></Placemark><Placemark><name>Emirates Ayurvedic Center</name><Point><gx:drawOrder>1</gx:drawOrder><coordinates>55.27992,25.236724,0</coordinates></Point></Placemark><Placemark><name>Dr. Ibrahim Abbara Clinic</name><Point><gx:drawOrder>1</gx:drawOrder><coordinates>55.276134,25.23748,0</coordinates></Point></Placemark><Placemark><name>Intra Laser Medical Center</name><Point><gx:drawOrder>1</gx:drawOrder><coordinates>54.370995,24.458283,0</coordinates></Point></Placemark><Placemark><name>ROYAL SPECIALIZED DENTAL CLINIC</name><Point><gx:drawOrder>1</gx:drawOrder><coordinates>54.367276,24.49065,0</coordinates></Point></Placemark><Placemark><name>Saif Dental Centre</name><Point><gx:drawOrder>1</gx:drawOrder><coordinates>54.36469,24.488084,0</coordinates></Point></Placemark><Placemark><name>National Ambulance Company L L C</name><Point><gx:drawOrder>1</gx:drawOrder><coordinates>54.191667,24.273356,0</coordinates></Point></Placemark><Placemark><name>Yateem Optician</name><Point><gx:drawOrder>1</gx:drawOrder><coordinates>54.368859,24.493385,0</coordinates></Point></Placemark><Placemark><name>Bella Roma Medical Aesthetic Center</name><Point><gx:drawOrder>1</gx:drawOrder><coordinates>55.218811,25.157817,0</coordinates></Point></Placemark><Placemark><name>Tunio Aesthetics</name><Point><gx:drawOrder>1</gx:drawOrder><coordinates>55.319633,25.23437,0</coordinates></Point></Placemark><Placemark><name>Russian Hospital</name><Point><gx:drawOrder>1</gx:drawOrder><coordinates>55.391689,25.325735,0</coordinates></Point></Placemark><Placemark><name>Al Qassemi Hospital</name><Point><gx:drawOrder>1</gx:drawOrder><coordinates>55.432625,25.341558,0</coordinates></Point></Placemark><Placemark><name>Kuwaiti Hospital</name><Point><gx:drawOrder>1</gx:drawOrder><coordinates>55.414213,25.370416,0</coordinates></Point></Placemark><Placemark><name>AL Maktoum Hospital</name><Point><gx:drawOrder>1</gx:drawOrder><coordinates>55.3116909,25.269735,0</coordinates></Point></Placemark><Placemark><name>Belhoul Speciality Hospital</name><Point><gx:drawOrder>1</gx:drawOrder><coordinates>55.313128,25.280447,0</coordinates></Point></Placemark><Placemark><name>Canadian Specialist Hospital</name><Point><gx:drawOrder>1</gx:drawOrder><coordinates>55.34859,25.277331,0</coordinates></Point></Placemark><Placemark><name>Gulf Specialty Hospital</name><Point><gx:drawOrder>1</gx:drawOrder><coordinates>55.330041,25.267318,0</coordinates></Point></Placemark><Placemark><name>Lifeline Hospital - Jebel Ali Hospital</name><Point><gx:drawOrder>1</gx:drawOrder><coordinates>55.114469,25.029464,0</coordinates></Point></Placemark><Placemark><name>Sheikh Khalifa Medical City</name><Point><gx:drawOrder>1</gx:drawOrder><coordinates>54.366531,24.469856,0</coordinates></Point></Placemark><Placemark><name>NMC Specialty Hospital</name><Point><gx:drawOrder>1</gx:drawOrder><coordinates>55.4015502,25.2880077,0</coordinates></Point></Placemark><Placemark><name>Rashid Hospital</name><Point><gx:drawOrder>1</gx:drawOrder><coordinates>55.319188,25.242727,0</coordinates></Point></Placemark><Placemark><name>Welcare Hospital - Mediclinic </name><Point><gx:drawOrder>1</gx:drawOrder><coordinates>55.3401,25.246851,0</coordinates></Point></Placemark><Placemark><name>Zulekha Hospital</name><Point><gx:drawOrder>1</gx:drawOrder><coordinates>55.383962,25.29124,0</coordinates></Point></Placemark><Placemark><name>Emirates Hospital</name><Point><gx:drawOrder>1</gx:drawOrder><coordinates>55.237746,25.197292,0</coordinates></Point></Placemark><Placemark><name>Belhoul European Hospital</name><Point><gx:drawOrder>1</gx:drawOrder><coordinates>55.275184,25.236911,0</coordinates></Point></Placemark><Placemark><name>Cedars Jabel Ali International Hospital</name><Point><gx:drawOrder>1</gx:drawOrder><coordinates>55.0869,25.015549,0</coordinates></Point></Placemark><Placemark><name>Neurological and Spinal Hospital</name><Point><gx:drawOrder>1</gx:drawOrder><coordinates>55.23776,25.197333,0</coordinates></Point></Placemark><Placemark><name>Zayed Military Hospital</name><Point><gx:drawOrder>1</gx:drawOrder><coordinates>54.429426,24.421274,0</coordinates></Point></Placemark><Placemark><name>Corniche Maternity Hospital</name><Point><gx:drawOrder>1</gx:drawOrder><coordinates>54.369713,24.501697,0</coordinates></Point></Placemark><Placemark><name>Mafraq Hospital</name><Point><gx:drawOrder>1</gx:drawOrder><coordinates>54.614379,24.330342,0</coordinates></Point></Placemark><Placemark><name>Tawam Hospital</name><Point><gx:drawOrder>1</gx:drawOrder><coordinates>55.650389,24.195561,0</coordinates></Point></Placemark><Placemark><name>Al Ain Hospital</name><Point><gx:drawOrder>1</gx:drawOrder><coordinates>55.733513,24.23045,0</coordinates></Point></Placemark><Placemark><name>Ajman Specialty Hospital</name><Point><gx:drawOrder>1</gx:drawOrder><coordinates>55.481762,25.393006,0</coordinates></Point></Placemark><Placemark><name>Al Salama Hospital</name><Point><gx:drawOrder>1</gx:drawOrder><coordinates>54.3763276,24.4993387,0</coordinates></Point></Placemark><Placemark><name>GMC Hospital - Ajman</name><Point><gx:drawOrder>1</gx:drawOrder><coordinates>55.462544,25.382488,0</coordinates></Point></Placemark><Placemark><name>Khalifa Hospital</name><Point><gx:drawOrder>1</gx:drawOrder><coordinates>55.496672,25.415912,0</coordinates></Point></Placemark><Placemark><name>Al Zahrawi Hospital</name><Point><gx:drawOrder>1</gx:drawOrder><coordinates>55.97513,25.799598,0</coordinates></Point></Placemark><Placemark><name>Umm Al Qaiwain Hospital</name><Point><gx:drawOrder>1</gx:drawOrder><coordinates>55.560405,25.574047,0</coordinates></Point></Placemark><Placemark><name>Saif Bin Ghobash Hospital</name><Point><gx:drawOrder>1</gx:drawOrder><coordinates>55.982482,25.796127,0</coordinates></Point></Placemark><Placemark><name>International Emirates Hospital</name><Point><gx:drawOrder>1</gx:drawOrder><coordinates>55.237746,25.197292,0</coordinates></Point></Placemark><Placemark><name>AL RAHBA HOSPITAL</name><Point><gx:drawOrder>1</gx:drawOrder><coordinates>54.695219,24.573724,0</coordinates></Point></Placemark><Placemark><name>Behavioral Sciences Pavilion</name><Point><gx:drawOrder>1</gx:drawOrder><coordinates>54.364822,24.472285,0</coordinates></Point></Placemark><Placemark><name>Marfa Hospital</name><Point><gx:drawOrder>1</gx:drawOrder><coordinates>54.6142935,24.3292669,0</coordinates></Point></Placemark><Placemark><name>Delma Hospital</name><Point><gx:drawOrder>1</gx:drawOrder><coordinates>54.3838793,24.4686096,0</coordinates></Point></Placemark><Placemark><name>Al Taj Hospital</name><Point><gx:drawOrder>1</gx:drawOrder><coordinates>55.686248,24.197784,0</coordinates></Point></Placemark><Placemark><name>Royal Hospital</name><Point><gx:drawOrder>1</gx:drawOrder><coordinates>55.518135,25.315432,0</coordinates></Point></Placemark><Placemark><name>Sharjah Corniche Hospital</name><Point><gx:drawOrder>1</gx:drawOrder><coordinates>55.38599,25.341049,0</coordinates></Point></Placemark><Placemark><name>Ahalia Hospital</name><Point><gx:drawOrder>1</gx:drawOrder><coordinates>54.359904,24.488084,0</coordinates></Point></Placemark><Placemark><name>Central Private Hospital</name><Point><gx:drawOrder>1</gx:drawOrder><coordinates>55.3981519,25.361032,0</coordinates></Point></Placemark><Placemark><name>Enjab Hospital</name><Point><gx:drawOrder>1</gx:drawOrder><coordinates>55.382863,25.323675,0</coordinates></Point></Placemark><Placemark><name>Zulekha Hospital</name><Point><gx:drawOrder>1</gx:drawOrder><coordinates>55.404702,25.368789,0</coordinates></Point></Placemark><Placemark><name>Medcare Hospital</name><Point><gx:drawOrder>1</gx:drawOrder><coordinates>55.242658,25.183311,0</coordinates></Point></Placemark><Placemark><name>Iranian Hospital</name><Point><gx:drawOrder>1</gx:drawOrder><coordinates>55.269087,25.230314,0</coordinates></Point></Placemark><Placemark><name>Hospital Franco Emirien</name><Point><gx:drawOrder>1</gx:drawOrder><coordinates>54.360188,24.493208,0</coordinates></Point></Placemark><Placemark><name>City Hospital - Mediclinic </name><Point><gx:drawOrder>1</gx:drawOrder><coordinates>55.322569,25.230385,0</coordinates></Point></Placemark><Placemark><name>Latifa Hospital (known before as Al Wasl Hospital)</name><Point><gx:drawOrder>1</gx:drawOrder><coordinates>55.315649,25.223857,0</coordinates></Point></Placemark><Placemark><name>Arab - Euro Home Nursing</name><Point><gx:drawOrder>1</gx:drawOrder><coordinates>54.360888,24.488776,0</coordinates></Point></Placemark><Placemark><name>Al Saad Hospital</name><Point><gx:drawOrder>1</gx:drawOrder><coordinates>55.520596,24.237569,0</coordinates></Point></Placemark><Placemark><name>Shaam Hospital</name><Point><gx:drawOrder>1</gx:drawOrder><coordinates>56.087721,26.020894,0</coordinates></Point></Placemark><Placemark><name>Al Baraha Hospital</name><Point><gx:drawOrder>1</gx:drawOrder><coordinates>55.318151,25.282221,0</coordinates></Point></Placemark><Placemark><name>LIFELINE HOSPITAL AL MUSAFAH L.L.C</name><Point><gx:drawOrder>1</gx:drawOrder><coordinates>54.517603,24.378821,0</coordinates></Point></Placemark><Placemark><name>GULF DIAGNOSTIC CENTER HOSPITAL- W L L ;</name><Point><gx:drawOrder>1</gx:drawOrder><coordinates>54.363759,24.446525,0</coordinates></Point></Placemark><Placemark><name>NMC Speciality Hospital</name><Point><gx:drawOrder>1</gx:drawOrder><coordinates>54.360834,24.484109,0</coordinates></Point></Placemark><Placemark><name>SAMAYA SPECIALIZED HOSPITAL</name><Point><gx:drawOrder>1</gx:drawOrder><coordinates>54.369507,24.435104,0</coordinates></Point></Placemark><Placemark><name>AL RAHA HOSPITAL LLC</name><Point><gx:drawOrder>1</gx:drawOrder><coordinates>54.3699,24.489433,0</coordinates></Point></Placemark><Placemark><name>Al Ain Cromwell Hospital</name><Point><gx:drawOrder>1</gx:drawOrder><coordinates>55.721084,24.246129,0</coordinates></Point></Placemark><Placemark><name>Al Salam Clinic</name><Point><gx:drawOrder>1</gx:drawOrder><coordinates>55.443761,25.405925,0</coordinates></Point></Placemark><Placemark><name>Zulekha Medical Center</name><Point><gx:drawOrder>1</gx:drawOrder><coordinates>55.880968,25.288071,0</coordinates></Point></Placemark><Placemark><name>New Zulekha Medical Center</name><Point><gx:drawOrder>1</gx:drawOrder><coordinates>55.881141,25.288076,0</coordinates></Point></Placemark><Placemark><name>Dr. Mariyam Dental Clinic</name><Point><gx:drawOrder>1</gx:drawOrder><coordinates>55.392469,25.345068,0</coordinates></Point></Placemark><Placemark><name>Al Salwa Herbs</name><Point><gx:drawOrder>1</gx:drawOrder><coordinates>55.401043,25.351373,0</coordinates></Point></Placemark><Placemark><name>Al Sharif Herbs</name><Point><gx:drawOrder>1</gx:drawOrder><coordinates>55.398434,25.349573,0</coordinates></Point></Placemark><Placemark><name>Aala Pediatric Clinic</name><Point><gx:drawOrder>1</gx:drawOrder><coordinates>55.296442,25.256693,0</coordinates></Point></Placemark><Placemark><name>Abu Hail Clinic</name><Point><gx:drawOrder>1</gx:drawOrder><coordinates>55.332708,25.281271,0</coordinates></Point></Placemark><Placemark><name>AL Baironi Poly Clinic</name><Point><gx:drawOrder>1</gx:drawOrder><coordinates>55.327253,25.26524,0</coordinates></Point></Placemark><Placemark><name>Al Khawaneej Clinic</name><Point><gx:drawOrder>1</gx:drawOrder><coordinates>55.46716,25.226278,0</coordinates></Point></Placemark><Placemark><name>Al Lusaily Clinic</name><Point><gx:drawOrder>1</gx:drawOrder><coordinates>55.238434,25.189559,0</coordinates></Point></Placemark><Placemark><name>Al Rafa Hospital</name><Point><gx:drawOrder>1</gx:drawOrder><coordinates>55.286619,25.252375,0</coordinates></Point></Placemark><Placemark><name>Al Rafiq Clinic</name><Point><gx:drawOrder>1</gx:drawOrder><coordinates>55.303896,25.268752,0</coordinates></Point></Placemark><Placemark><name>Al Ula Clinic</name><Point><gx:drawOrder>1</gx:drawOrder><coordinates>55.307057,25.245787,0</coordinates></Point></Placemark><Placemark><name>Arabian Home Healthcare</name><Point><gx:drawOrder>1</gx:drawOrder><coordinates>55.315175,25.244574,0</coordinates></Point></Placemark><Placemark><name>Atlanta Vision Clinic</name><Point><gx:drawOrder>1</gx:drawOrder><coordinates>55.196514,25.129666,0</coordinates></Point></Placemark><Placemark><name>Bin Brek Medical Center</name><Point><gx:drawOrder>1</gx:drawOrder><coordinates>55.301273,25.255947,0</coordinates></Point></Placemark><Placemark><name>Dr.Al Rustom's Skin& Laser Clinic</name><Point><gx:drawOrder>1</gx:drawOrder><coordinates>55.266799,25.226951,0</coordinates></Point></Placemark><Placemark><name>Dr.Amal Alias Clinic</name><Point><gx:drawOrder>1</gx:drawOrder><coordinates>55.138986,25.068933,0</coordinates></Point></Placemark><Placemark><name>Dr. Gonzales Dental Clinic</name><Point><gx:drawOrder>1</gx:drawOrder><coordinates>55.307207,25.245729,0</coordinates></Point></Placemark><Placemark><name>Dr. Haqi Ismail Nasir Dental Clinic</name><Point><gx:drawOrder>1</gx:drawOrder><coordinates>55.326957,25.264799,0</coordinates></Point></Placemark><Placemark><name>Dr. Hashim Clinic</name><Point><gx:drawOrder>1</gx:drawOrder><coordinates>55.312542,25.275731,0</coordinates></Point></Placemark><Placemark><name>Dr.Hibah Shata Specialized Dental Clinic</name><Point><gx:drawOrder>1</gx:drawOrder><coordinates>55.329167,25.253056,0</coordinates></Point></Placemark><Placemark><name>Dr. Hussein Al Sayed Clinic</name><Point><gx:drawOrder>1</gx:drawOrder><coordinates>55.276134,25.23748,0</coordinates></Point></Placemark><Placemark><name>Dr . Ibrahim Abbara Clinic</name><Point><gx:drawOrder>1</gx:drawOrder><coordinates>55.276134,25.23748,0</coordinates></Point></Placemark><Placemark><name>Dr.Ibrahim Arab Dental Center</name><Point><gx:drawOrder>1</gx:drawOrder><coordinates>55.205419,25.15686,0</coordinates></Point></Placemark><Placemark><name>D. Jamal Jomah Plastic Surgery</name><Point><gx:drawOrder>1</gx:drawOrder><coordinates>55.195474,25.14511,0</coordinates></Point></Placemark><Placemark><name>Dr. Jolly Clinic</name><Point><gx:drawOrder>1</gx:drawOrder><coordinates>55.297899,25.257631,0</coordinates></Point></Placemark><Placemark><name>Dr.Kamkar Medical & Physiotherapy Center</name><Point><gx:drawOrder>1</gx:drawOrder><coordinates>55.33506,25.286198,0</coordinates></Point></Placemark><Placemark><name>Dr. Keerthi Clinic</name><Point><gx:drawOrder>1</gx:drawOrder><coordinates>55.302395,25.24532,0</coordinates></Point></Placemark><Placemark><name>Dr. Leila Soudah Clinic</name><Point><gx:drawOrder>1</gx:drawOrder><coordinates>55.227661,25.184527,0</coordinates></Point></Placemark><Placemark><name>Dr. Litkouhi Clinic</name><Point><gx:drawOrder>1</gx:drawOrder><coordinates>55.317429,25.267657,0</coordinates></Point></Placemark><Placemark><name>Dr. Madappur Swami Clinic</name><Point><gx:drawOrder>1</gx:drawOrder><coordinates>55.293475,25.262762,0</coordinates></Point></Placemark><Placemark><name>Dr. Magdi Iskander Physiotherapy Clinic</name><Point><gx:drawOrder>1</gx:drawOrder><coordinates>55.344859,25.27574,0</coordinates></Point></Placemark><Placemark><name>Dr. Mallya Dental Clinic</name><Point><gx:drawOrder>1</gx:drawOrder><coordinates>55.301206,25.256039,0</coordinates></Point></Placemark><Placemark><name>Dr. Manoj Kumar Dental Clinic</name><Point><gx:drawOrder>1</gx:drawOrder><coordinates>55.301774,25.271438,0</coordinates></Point></Placemark><Placemark><name>Dr.Nabil Adnan Said Clinic</name><Point><gx:drawOrder>1</gx:drawOrder><coordinates>55.328934,25.263816,0</coordinates></Point></Placemark><Placemark><name>Dr. Sabin Afram Medical Clinic</name><Point><gx:drawOrder>1</gx:drawOrder><coordinates>55.353748,25.281907,0</coordinates></Point></Placemark><Placemark><name>Dr.Samy Ayad Clinic</name><Point><gx:drawOrder>1</gx:drawOrder><coordinates>55.328934,25.263816,0</coordinates></Point></Placemark><Placemark><name>Dr.Sathish Chandran Medical Clinic</name><Point><gx:drawOrder>1</gx:drawOrder><coordinates>55.329829,25.27437,0</coordinates></Point></Placemark><Placemark><name>Dubai American Academy</name><Point><gx:drawOrder>1</gx:drawOrder><coordinates>55.207625,25.114352,0</coordinates></Point></Placemark><Placemark><name>Dubai Fertility Center</name><Point><gx:drawOrder>1</gx:drawOrder><coordinates>55.317834,25.233169,0</coordinates></Point></Placemark><Placemark><name>Dubai Heart Center</name><Point><gx:drawOrder>1</gx:drawOrder><coordinates>55.317834,25.233169,0</coordinates></Point></Placemark><Placemark><name>Dubai Homeopathy Health Center</name><Point><gx:drawOrder>1</gx:drawOrder><coordinates>55.230786,25.174404,0</coordinates></Point></Placemark><Placemark><name>Dubai Hospital</name><Point><gx:drawOrder>1</gx:drawOrder><coordinates>55.321953,25.284853,0</coordinates></Point></Placemark><Placemark><name>Dubai Petroleum Company Clinic</name><Point><gx:drawOrder>1</gx:drawOrder><coordinates>55.422699,25.323982,0</coordinates></Point></Placemark><Placemark><name>Dubai Center</name><Point><gx:drawOrder>1</gx:drawOrder><coordinates>55.319424,25.229634,0</coordinates></Point></Placemark><Placemark><name>Emirates International School Clinic</name><Point><gx:drawOrder>1</gx:drawOrder><coordinates>55.219338,25.081635,0</coordinates></Point></Placemark><Placemark><name>Emirates Medical Center</name><Point><gx:drawOrder>1</gx:drawOrder><coordinates>55.169814,25.102406,0</coordinates></Point></Placemark><Placemark><name>Essensuals Aromatherapy Center</name><Point><gx:drawOrder>1</gx:drawOrder><coordinates>55.262944,25.230696,0</coordinates></Point></Placemark><Placemark><name>Euro Gulf Medical Center</name><Point><gx:drawOrder>1</gx:drawOrder><coordinates>55.442526,25.422714,0</coordinates></Point></Placemark><Placemark><name>European Medical Center & Aesthetic Surgery</name><Point><gx:drawOrder>1</gx:drawOrder><coordinates>55.256853,25.223845,0</coordinates></Point></Placemark><Placemark><name>Fouad Abdel Latif Psychiatry Clinic</name><Point><gx:drawOrder>1</gx:drawOrder><coordinates>55.3299,25.2556,0</coordinates></Point></Placemark><Placemark><name>French Medical Center</name><Point><gx:drawOrder>1</gx:drawOrder><coordinates>55.261523,25.230265,0</coordinates></Point></Placemark><Placemark><name>General Medical Center - Green Community</name><Point><gx:drawOrder>1</gx:drawOrder><coordinates>55.16534,25.005448,0</coordinates></Point></Placemark><Placemark><name>German Dental Clinic</name><Point><gx:drawOrder>1</gx:drawOrder><coordinates>55.138293,25.068184,0</coordinates></Point></Placemark><Placemark><name>German Medical Center</name><Point><gx:drawOrder>1</gx:drawOrder><coordinates>55.436636,25.392895,0</coordinates></Point></Placemark><Placemark><name>Getwell Medical Center</name><Point><gx:drawOrder>1</gx:drawOrder><coordinates>55.300667,25.256312,0</coordinates></Point></Placemark><Placemark><name>Ghodousi Medical Center</name><Point><gx:drawOrder>1</gx:drawOrder><coordinates>55.308179,25.268245,0</coordinates></Point></Placemark><Placemark><name>Ghussais Clinic</name><Point><gx:drawOrder>1</gx:drawOrder><coordinates>55.38929,25.267484,0</coordinates></Point></Placemark><Placemark><name>Great Ormondo Street Hospital For Children Nhs Trust</name><Point><gx:drawOrder>1</gx:drawOrder><coordinates>55.326686,25.232319,0</coordinates></Point></Placemark><Placemark><name>H.M.R.T Medical Polyclinic</name><Point><gx:drawOrder>1</gx:drawOrder><coordinates>55.364908,25.287848,0</coordinates></Point></Placemark><Placemark><name>Jebbl Ali Clinic</name><Point><gx:drawOrder>1</gx:drawOrder><coordinates>55.117215,25.034899,0</coordinates></Point></Placemark><Placemark><name>Karama Medical Center</name><Point><gx:drawOrder>1</gx:drawOrder><coordinates>55.306504,25.272978,0</coordinates></Point></Placemark><Placemark><name>Kaul Clinic</name><Point><gx:drawOrder>1</gx:drawOrder><coordinates>55.294671,25.25645,0</coordinates></Point></Placemark><Placemark><name>Keith Nicholl Medical Center</name><Point><gx:drawOrder>1</gx:drawOrder><coordinates>55.215041,25.169255,0</coordinates></Point></Placemark><Placemark><name>Khayber Medical Center</name><Point><gx:drawOrder>1</gx:drawOrder><coordinates>54.374839,24.475933,0</coordinates></Point></Placemark><Placemark><name>Laser Eye Care & Research Center</name><Point><gx:drawOrder>1</gx:drawOrder><coordinates>55.326569,25.231692,0</coordinates></Point></Placemark><Placemark><name>Mahboubi Poly Dental Clinic</name><Point><gx:drawOrder>1</gx:drawOrder><coordinates>55.27128,25.237078,0</coordinates></Point></Placemark><Placemark><name>Marhaba Medical Center</name><Point><gx:drawOrder>1</gx:drawOrder><coordinates>55.315853,25.26979,0</coordinates></Point></Placemark><Placemark><name>Medical Center For Bioresonance</name><Point><gx:drawOrder>1</gx:drawOrder><coordinates>55.2536,25.218576,0</coordinates></Point></Placemark><Placemark><name>Nad Al Shiba Clinic</name><Point><gx:drawOrder>1</gx:drawOrder><coordinates>55.323574,25.15591,0</coordinates></Point></Placemark><Placemark><name>Dr Nasser Clinic</name><Point><gx:drawOrder>1</gx:drawOrder><coordinates>55.382148,25.272989,0</coordinates></Point></Placemark><Placemark><name>Ibn Nafees Medical Center</name><Point><gx:drawOrder>1</gx:drawOrder><coordinates>54.368548,24.491395,0</coordinates></Point></Placemark><Placemark><name>New Emirates Medical Center</name><Point><gx:drawOrder>1</gx:drawOrder><coordinates>55.327447,25.26217,0</coordinates></Point></Placemark><Placemark><name>New Fathima Medical Center</name><Point><gx:drawOrder>1</gx:drawOrder><coordinates>55.297491,25.258902,0</coordinates></Point></Placemark><Placemark><name>New Ras AlKhor Medical Center</name><Point><gx:drawOrder>1</gx:drawOrder><coordinates>55.343429,25.184986,0</coordinates></Point></Placemark><Placemark><name>New Shefa Clinic</name><Point><gx:drawOrder>1</gx:drawOrder><coordinates>55.277464,25.235489,0</coordinates></Point></Placemark><Placemark><name>Noa Dental Clinic</name><Point><gx:drawOrder>1</gx:drawOrder><coordinates>55.279969,25.236932,0</coordinates></Point></Placemark><Placemark><name>Noora Polyclinic Clinic</name><Point><gx:drawOrder>1</gx:drawOrder><coordinates>55.312431,25.270221,0</coordinates></Point></Placemark><Placemark><name>Oral Implantology Medical Center</name><Point><gx:drawOrder>1</gx:drawOrder><coordinates>55.329889,25.255598,0</coordinates></Point></Placemark><Placemark><name>Prime Medical Center</name><Point><gx:drawOrder>1</gx:drawOrder><coordinates>55.322362,25.270791,0</coordinates></Point></Placemark><Placemark><name>Reflection Hair & Beauty Care</name><Point><gx:drawOrder>1</gx:drawOrder><coordinates>55.218486,25.158521,0</coordinates></Point></Placemark><Placemark><name>Rythm Yoga & Fitness Center</name><Point><gx:drawOrder>1</gx:drawOrder><coordinates>55.300554,25.242038,0</coordinates></Point></Placemark><Placemark><name>Satwa Clinic</name><Point><gx:drawOrder>1</gx:drawOrder><coordinates>55.27591,25.231114,0</coordinates></Point></Placemark><Placemark><name>Shanghai Medical Clinic</name><Point><gx:drawOrder>1</gx:drawOrder><coordinates>55.260962,25.194098,0</coordinates></Point></Placemark><Placemark><name>Sina Medical Clinic</name><Point><gx:drawOrder>1</gx:drawOrder><coordinates>55.302519,25.268156,0</coordinates></Point></Placemark><Placemark><name>Singhania Children Clinic</name><Point><gx:drawOrder>1</gx:drawOrder><coordinates>55.296497,25.240713,0</coordinates></Point></Placemark><Placemark><name>Sirajuddin Medical Center</name><Point><gx:drawOrder>1</gx:drawOrder><coordinates>55.303092,25.237236,0</coordinates></Point></Placemark><Placemark><name>Splendour Beauty & Hair Center</name><Point><gx:drawOrder>1</gx:drawOrder><coordinates>55.277499,25.244091,0</coordinates></Point></Placemark><Placemark><name>Swedish Dental Clinic</name><Point><gx:drawOrder>1</gx:drawOrder><coordinates>55.315879,25.26419,0</coordinates></Point></Placemark><Placemark><name>Swiss Dental Clinic</name><Point><gx:drawOrder>1</gx:drawOrder><coordinates>55.279877,25.22029,0</coordinates></Point></Placemark><Placemark><name>The British Lasik & Cosmetic Surgery Center</name><Point><gx:drawOrder>1</gx:drawOrder><coordinates>55.239657,25.200061,0</coordinates></Point></Placemark><Placemark><name>The Kindergarten Starters Clinic</name><Point><gx:drawOrder>1</gx:drawOrder><coordinates>55.339229,25.248354,0</coordinates></Point></Placemark><Placemark><name>The Modern Medical Consultant Center</name><Point><gx:drawOrder>1</gx:drawOrder><coordinates>55.318539,25.261595,0</coordinates></Point></Placemark><Placemark><name>The Hundred Pilates wellness centre</name><Point><gx:drawOrder>1</gx:drawOrder><coordinates>55.258532,25.221422,0</coordinates></Point></Placemark><Placemark><name>The Westminster School Clinic</name><Point><gx:drawOrder>1</gx:drawOrder><coordinates>55.371148,25.283093,0</coordinates></Point></Placemark><Placemark><name>Ultra Care Medical Group</name><Point><gx:drawOrder>1</gx:drawOrder><coordinates>55.308649,25.267546,0</coordinates></Point></Placemark><Placemark><name>Unicare Medical Center</name><Point><gx:drawOrder>1</gx:drawOrder><coordinates>55.303061,25.254045,0</coordinates></Point></Placemark><Placemark><name>Zulekha Medical Center</name><Point><gx:drawOrder>1</gx:drawOrder><coordinates>55.378846,25.26831,0</coordinates></Point></Placemark><Placemark><name>A. Susheela, Dr. Joseph Polyclinic</name><Point><gx:drawOrder>1</gx:drawOrder><coordinates>55.300057,25.244966,0</coordinates></Point></Placemark><Placemark><name>Ibin Al Haitham Medical Center</name><Point><gx:drawOrder>1</gx:drawOrder><coordinates>55.307207,25.245729,0</coordinates></Point></Placemark><Placemark><name>Jumeria Beach Dental Center</name><Point><gx:drawOrder>1</gx:drawOrder><coordinates>55.258014,25.225422,0</coordinates></Point></Placemark><Placemark><name>Hamly Medical Centre</name><Point><gx:drawOrder>1</gx:drawOrder><coordinates>55.309515,25.249286,0</coordinates></Point></Placemark><Placemark><name>Dr. Abdul Nasser Abdul Ghani Dental Clinic</name><Point><gx:drawOrder>1</gx:drawOrder><coordinates>55.322504,25.263514,0</coordinates></Point></Placemark><Placemark><name>Al Rafa Polyclinic</name><Point><gx:drawOrder>1</gx:drawOrder><coordinates>55.405962,25.163697,0</coordinates></Point></Placemark><Placemark><name>AL Noor Polyclinic</name><Point><gx:drawOrder>1</gx:drawOrder><coordinates>55.384042,25.232533,0</coordinates></Point></Placemark><Placemark><name>AL Rahif Medical Clinic</name><Point><gx:drawOrder>1</gx:drawOrder><coordinates>55.39739,25.257131,0</coordinates></Point></Placemark><Placemark><name>Al Fahim Clinic</name><Point><gx:drawOrder>1</gx:drawOrder><coordinates>55.303124,25.268545,0</coordinates></Point></Placemark><Placemark><name>Al Dana Medical Polyclinic</name><Point><gx:drawOrder>1</gx:drawOrder><coordinates>55.290252,25.259639,0</coordinates></Point></Placemark><Placemark><name>Mohamed Boostani Medical Clinic</name><Point><gx:drawOrder>1</gx:drawOrder><coordinates>55.31042,25.26659,0</coordinates></Point></Placemark><Placemark><name>Al Mamzer Polyclinic</name><Point><gx:drawOrder>1</gx:drawOrder><coordinates>55.3535642,25.2821155,0</coordinates></Point></Placemark><Placemark><name>Dr Nouhal Kamel Ibrahim Clinic</name><Point><gx:drawOrder>1</gx:drawOrder><coordinates>55.3299,25.2556,0</coordinates></Point></Placemark><Placemark><name>Al Raas Private Medical Clinic</name><Point><gx:drawOrder>1</gx:drawOrder><coordinates>55.302961,25.245443,0</coordinates></Point></Placemark><Placemark><name>Hatem Hair Center</name><Point><gx:drawOrder>1</gx:drawOrder><coordinates>55.421288,25.237016,0</coordinates></Point></Placemark><Placemark><name>Dr. Kamkar Medical & Physiotherapy Center</name><Point><gx:drawOrder>1</gx:drawOrder><coordinates>55.33506,25.286198,0</coordinates></Point></Placemark><Placemark><name>Mideast Polyclinic</name><Point><gx:drawOrder>1</gx:drawOrder><coordinates>55.322001,25.263956,0</coordinates></Point></Placemark><Placemark><name>Al Khalidia Medical Clinic</name><Point><gx:drawOrder>1</gx:drawOrder><coordinates>54.3534999,24.4759795,0</coordinates></Point></Placemark><Placemark><name>Al Saqi Medical Clinic</name><Point><gx:drawOrder>1</gx:drawOrder><coordinates>54.359776,24.486074,0</coordinates></Point></Placemark><Placemark><name>Al Shahama Medical Clinic</name><Point><gx:drawOrder>1</gx:drawOrder><coordinates>54.637609,24.297543,0</coordinates></Point></Placemark><Placemark><name>Al Ain Medical Clinic</name><Point><gx:drawOrder>1</gx:drawOrder><coordinates>55.645054,24.194813,0</coordinates></Point></Placemark><Placemark><name>Al Nahda Medical Clinic</name><Point><gx:drawOrder>1</gx:drawOrder><coordinates>55.38045,25.267194,0</coordinates></Point></Placemark><Placemark><name>Emirates Polyclinic</name><Point><gx:drawOrder>1</gx:drawOrder><coordinates>55.392009,25.336051,0</coordinates></Point></Placemark><Placemark><name>Gulf Pearl Dental Clinic</name><Point><gx:drawOrder>1</gx:drawOrder><coordinates>54.351242,24.481636,0</coordinates></Point></Placemark><Placemark><name>Al Salama Medical Clinic</name><Point><gx:drawOrder>1</gx:drawOrder><coordinates>55.974753,25.797753,0</coordinates></Point></Placemark><Placemark><name>Atef Dental Clinic</name><Point><gx:drawOrder>1</gx:drawOrder><coordinates>55.974968,25.798272,0</coordinates></Point></Placemark><Placemark><name>Emirates Eye Clinic</name><Point><gx:drawOrder>1</gx:drawOrder><coordinates>55.974988,25.798294,0</coordinates></Point></Placemark><Placemark><name>Al Jazbir Clinic</name><Point><gx:drawOrder>1</gx:drawOrder><coordinates>55.571438,25.586707,0</coordinates></Point></Placemark><Placemark><name>Easow's Specialist Clinic</name><Point><gx:drawOrder>1</gx:drawOrder><coordinates>55.555328,25.569782,0</coordinates></Point></Placemark><Placemark><name>Al Jaber Establishment</name><Point><gx:drawOrder>1</gx:drawOrder><coordinates>55.02294,24.987743,0</coordinates></Point></Placemark><Placemark><name>Sarhad Medical Clinic</name><Point><gx:drawOrder>1</gx:drawOrder><coordinates>54.516495,24.376243,0</coordinates></Point></Placemark><Placemark><name>Alkarama Medical Clinic</name><Point><gx:drawOrder>1</gx:drawOrder><coordinates>54.63897,24.296543,0</coordinates></Point></Placemark><Placemark><name>Dr. Moopens Medical Clinic</name><Point><gx:drawOrder>1</gx:drawOrder><coordinates>54.513666,24.382593,0</coordinates></Point></Placemark><Placemark><name>Sas Al Nakhl Clinic</name><Point><gx:drawOrder>1</gx:drawOrder><coordinates>54.366667,24.466667,0</coordinates></Point></Placemark><Placemark><name>Abu Dhabi Investment Authority clinic</name><Point><gx:drawOrder>1</gx:drawOrder><coordinates>54.366667,24.466667,0</coordinates></Point></Placemark><Placemark><name>Dr. Faiz Haddad Clinic</name><Point><gx:drawOrder>1</gx:drawOrder><coordinates>54.360404,24.488251,0</coordinates></Point></Placemark><Placemark><name>Ghanem Medical Clinic</name><Point><gx:drawOrder>1</gx:drawOrder><coordinates>54.360576,24.485163,0</coordinates></Point></Placemark><Placemark><name>Dr.Nizar Nayef Clinic</name><Point><gx:drawOrder>1</gx:drawOrder><coordinates>54.354207,24.486513,0</coordinates></Point></Placemark><Placemark><name>Al Salam Clinic</name><Point><gx:drawOrder>1</gx:drawOrder><coordinates>55.443761,25.405925,0</coordinates></Point></Placemark><Placemark><name>Al Lulu Island Clinic</name><Point><gx:drawOrder>1</gx:drawOrder><coordinates>54.368734,24.465371,0</coordinates></Point></Placemark><Placemark><name>Isis - The French Clinic</name><Point><gx:drawOrder>1</gx:drawOrder><coordinates>55.318222,25.233764,0</coordinates></Point></Placemark><Placemark><name>Ajman Medical Center L.L.C</name><Point><gx:drawOrder>1</gx:drawOrder><coordinates>55.387114,25.357616,0</coordinates></Point></Placemark><Placemark><name>Diab Medical Center</name><Point><gx:drawOrder>1</gx:drawOrder><coordinates>55.431096,25.396979,0</coordinates></Point></Placemark><Placemark><name>Al Hanan Medical Clinic</name><Point><gx:drawOrder>1</gx:drawOrder><coordinates>55.967418,25.777764,0</coordinates></Point></Placemark><Placemark><name>Al Iman Medical Clinic</name><Point><gx:drawOrder>1</gx:drawOrder><coordinates>55.250748,25.159565,0</coordinates></Point></Placemark><Placemark><name>Al Mamzer Health Center</name><Point><gx:drawOrder>1</gx:drawOrder><coordinates>55.347231,25.297657,0</coordinates></Point></Placemark><Placemark><name>Al Mankhool Clinic</name><Point><gx:drawOrder>1</gx:drawOrder><coordinates>55.296485,25.240066,0</coordinates></Point></Placemark><Placemark><name>Al Muhaisnah Poly Clinic</name><Point><gx:drawOrder>1</gx:drawOrder><coordinates>55.275121,25.228933,0</coordinates></Point></Placemark><Placemark><name>Al Nakhil Gynaecology Clinic</name><Point><gx:drawOrder>1</gx:drawOrder><coordinates>55.276613,25.236001,0</coordinates></Point></Placemark><Placemark><name>Al Qusais Star Polyclinic</name><Point><gx:drawOrder>1</gx:drawOrder><coordinates>55.388799,25.284755,0</coordinates></Point></Placemark><Placemark><name>Al Shareif Clinic</name><Point><gx:drawOrder>1</gx:drawOrder><coordinates>55.298085,25.270565,0</coordinates></Point></Placemark><Placemark><name>Dr. Koya's Clinic</name><Point><gx:drawOrder>1</gx:drawOrder><coordinates>55.305143,25.272291,0</coordinates></Point></Placemark><Placemark><name>Dr. Nadia Emile Clinic</name><Point><gx:drawOrder>1</gx:drawOrder><coordinates>55.309296,25.266616,0</coordinates></Point></Placemark><Placemark><name>Dr.Ravari's Dental Clinic</name><Point><gx:drawOrder>1</gx:drawOrder><coordinates>55.327642,25.254574,0</coordinates></Point></Placemark><Placemark><name>Dr.Salah Al Rubaie Dermatology & Venereology Clinic</name><Point><gx:drawOrder>1</gx:drawOrder><coordinates>55.328934,25.263816,0</coordinates></Point></Placemark><Placemark><name>Dr.Zahra Al Rafaei Clinic</name><Point><gx:drawOrder>1</gx:drawOrder><coordinates>55.278039,25.235086,0</coordinates></Point></Placemark><Placemark><name>Dubai Bone & Joint Center</name><Point><gx:drawOrder>1</gx:drawOrder><coordinates>55.319227,25.234339,0</coordinates></Point></Placemark><Placemark><name>Dubai Gem Pvt. School Clinic</name><Point><gx:drawOrder>1</gx:drawOrder><coordinates>55.219338,25.081635,0</coordinates></Point></Placemark><Placemark><name>Dubai Smile Dental Center</name><Point><gx:drawOrder>1</gx:drawOrder><coordinates>55.224844,25.181854,0</coordinates></Point></Placemark><Placemark><name>Jansons Stars Polyclinic</name><Point><gx:drawOrder>1</gx:drawOrder><coordinates>55.290912,25.2593,0</coordinates></Point></Placemark><Placemark><name>Kaya Skin Care Clinic - Sultan Business Center Branch</name><Point><gx:drawOrder>1</gx:drawOrder><coordinates>55.308936,25.233795,0</coordinates></Point></Placemark><Placemark><name>Liberty Dental Clinic</name><Point><gx:drawOrder>1</gx:drawOrder><coordinates>55.228942,25.187202,0</coordinates></Point></Placemark><Placemark><name>Dr. Joseph Polyclinic</name><Point><gx:drawOrder>1</gx:drawOrder><coordinates>55.300078,25.244767,0</coordinates></Point></Placemark><Placemark><name>Dr. Ahmed Kazim Clinic</name><Point><gx:drawOrder>1</gx:drawOrder><coordinates>55.288777,25.259579,0</coordinates></Point></Placemark><Placemark><name>Amrita Medical Clinic</name><Point><gx:drawOrder>1</gx:drawOrder><coordinates>55.275569,25.237747,0</coordinates></Point></Placemark><Placemark><name>New Dubai Clinic</name><Point><gx:drawOrder>1</gx:drawOrder><coordinates>55.296077,25.262743,0</coordinates></Point></Placemark><Placemark><name>Dr. Michaels Dental Clinic</name><Point><gx:drawOrder>1</gx:drawOrder><coordinates>55.217439,25.157171,0</coordinates></Point></Placemark><Placemark><name>Al Yasmeen Dental Clinic</name><Point><gx:drawOrder>1</gx:drawOrder><coordinates>55.328328,25.264743,0</coordinates></Point></Placemark><Placemark><name>New Sanaiya Clinic</name><Point><gx:drawOrder>1</gx:drawOrder><coordinates>55.473523,25.378907,0</coordinates></Point></Placemark><Placemark><name>Dr. Rasools Healthcare Centre</name><Point><gx:drawOrder>1</gx:drawOrder><coordinates>55.309296,25.266616,0</coordinates></Point></Placemark><Placemark><name>Al Mamzar Polyclinic</name><Point><gx:drawOrder>1</gx:drawOrder><coordinates>55.353702,25.281667,0</coordinates></Point></Placemark><Placemark><name>Al Rashad Psychiatry Clinic</name><Point><gx:drawOrder>1</gx:drawOrder><coordinates>55.276134,25.23748,0</coordinates></Point></Placemark><Placemark><name>Al Wasl Medical Clinic</name><Point><gx:drawOrder>1</gx:drawOrder><coordinates>55.329088,25.264892,0</coordinates></Point></Placemark><Placemark><name>Amrita Medical Clinic</name><Point><gx:drawOrder>1</gx:drawOrder><coordinates>55.275569,25.237747,0</coordinates></Point></Placemark><Placemark><name>British Medical Consulting Centre </name><Point><gx:drawOrder>1</gx:drawOrder><coordinates>55.251609,25.216974,0</coordinates></Point></Placemark><Placemark><name>Dr. Adnan Mohd Kaddaha Clinic</name><Point><gx:drawOrder>1</gx:drawOrder><coordinates>55.309296,25.266616,0</coordinates></Point></Placemark><Placemark><name>Dr. Al Rustom's Skin & Laser Clinic</name><Point><gx:drawOrder>1</gx:drawOrder><coordinates>55.266799,25.226951,0</coordinates></Point></Placemark><Placemark><name>Dr. Azzam Al Abdul Razzak Clinic</name><Point><gx:drawOrder>1</gx:drawOrder><coordinates>55.322152,25.270609,0</coordinates></Point></Placemark><Placemark><name>Dr. Mohamed Shouma Clinic</name><Point><gx:drawOrder>1</gx:drawOrder><coordinates>55.309746,25.24915,0</coordinates></Point></Placemark><Placemark><name>Jumeirah American Clinic</name><Point><gx:drawOrder>1</gx:drawOrder><coordinates>55.261534,25.230231,0</coordinates></Point></Placemark><Placemark><name>Kaya Skin Care Clinic - Town Center Branch</name><Point><gx:drawOrder>1</gx:drawOrder><coordinates>55.25136,25.215198,0</coordinates></Point></Placemark><Placemark><name>Specialist Orthopaedic Surgery & Physical Rehabiltation Clinic</name><Point><gx:drawOrder>1</gx:drawOrder><coordinates>55.248468,25.20003,0</coordinates></Point></Placemark><Placemark><name>The Millenium School Clinic</name><Point><gx:drawOrder>1</gx:drawOrder><coordinates>55.368107,25.286365,0</coordinates></Point></Placemark><Placemark><name>Zabeel Clinic</name><Point><gx:drawOrder>1</gx:drawOrder><coordinates>55.307,25.2407,0</coordinates></Point></Placemark><Placemark><name>Amal Specialized Dental Clinic</name><Point><gx:drawOrder>1</gx:drawOrder><coordinates>55.279974,25.220275,0</coordinates></Point></Placemark><Placemark><name>Euro Care Dental Clinic</name><Point><gx:drawOrder>1</gx:drawOrder><coordinates>55.296442,25.256494,0</coordinates></Point></Placemark><Placemark><name>Smiline Dental Centre</name><Point><gx:drawOrder>1</gx:drawOrder><coordinates>55.2842,25.226573,0</coordinates></Point></Placemark><Placemark><name>Dr Gonzales Dental Clinic</name><Point><gx:drawOrder>1</gx:drawOrder><coordinates>55.307186,25.245792,0</coordinates></Point></Placemark><Placemark><name>Simply Skin Medical Spa LLC</name><Point><gx:drawOrder>1</gx:drawOrder><coordinates>55.272858,25.238159,0</coordinates></Point></Placemark><Placemark><name>DR. ABDALLAH AZZAM PAEDIATRIC CLINIC LLC</name><Point><gx:drawOrder>1</gx:drawOrder><coordinates>54.355124,24.479924,0</coordinates></Point></Placemark><Placemark><name>ALBAITAR SPECILIZED MEDICAL CLINIC</name><Point><gx:drawOrder>1</gx:drawOrder><coordinates>54.640144,24.295736,0</coordinates></Point></Placemark><Placemark><name>AL MANHAL FAMILY MEDICINE CLINIC</name><Point><gx:drawOrder>1</gx:drawOrder><coordinates>54.372953,24.468263,0</coordinates></Point></Placemark><Placemark><name>AMRITA LASER SKIN CARE CLINIC</name><Point><gx:drawOrder>1</gx:drawOrder><coordinates>54.355124,24.479924,0</coordinates></Point></Placemark><Placemark><name>DR. AHMED KAMEL CLINIC</name><Point><gx:drawOrder>1</gx:drawOrder><coordinates>54.360697,24.491186,0</coordinates></Point></Placemark><Placemark><name>DAVINCI DENTAL CLINIC</name><Point><gx:drawOrder>1</gx:drawOrder><coordinates>54.318583,24.474257,0</coordinates></Point></Placemark><Placemark><name>AL KHAZNA MEDICAL CLINIC</name><Point><gx:drawOrder>1</gx:drawOrder><coordinates>54.366419,24.491449,0</coordinates></Point></Placemark><Placemark><name>Medical Speciality Centre</name><Point><gx:drawOrder>1</gx:drawOrder><coordinates>54.35426,24.478023,0</coordinates></Point></Placemark><Placemark><name>KHALIDIYA URGENT CARE CENTER</name><Point><gx:drawOrder>1</gx:drawOrder><coordinates>54.352632,24.468229,0</coordinates></Point></Placemark><Placemark><name>VLCC INTERNATIONAL L.L.C</name><Point><gx:drawOrder>1</gx:drawOrder><coordinates>54.342908,24.470033,0</coordinates></Point></Placemark><Placemark><name>The Open MRI Center LLC</name><Point><gx:drawOrder>1</gx:drawOrder><coordinates>54.385637,24.470605,0</coordinates></Point></Placemark><Placemark><name>Dr.Ibrahim Awad Clinic</name><Point><gx:drawOrder>1</gx:drawOrder><coordinates>54.355124,24.479924,0</coordinates></Point></Placemark><Placemark><name>Russian Eye Clinic</name><Point><gx:drawOrder>1</gx:drawOrder><coordinates>54.359957,24.490601,0</coordinates></Point></Placemark><Placemark><name>Abu Dhabi Rehabilitation Center</name><Point><gx:drawOrder>1</gx:drawOrder><coordinates>54.366246,24.471145,0</coordinates></Point></Placemark><Placemark><name>AL AHLIAH DENTAL CLINIC L.L.C</name><Point><gx:drawOrder>1</gx:drawOrder><coordinates>54.368784,24.493221,0</coordinates></Point></Placemark><Placemark><name>Dr. Ronald Mcculloch Complex</name><Point><gx:drawOrder>1</gx:drawOrder><coordinates>54.360335,24.490832,0</coordinates></Point></Placemark><Placemark><name>ALTHURAYA DENTAL IMPLANT CENTER</name><Point><gx:drawOrder>1</gx:drawOrder><coordinates>54.376954,24.461872,0</coordinates></Point></Placemark><Placemark><name>AlDiyar Medical Clinic</name><Point><gx:drawOrder>1</gx:drawOrder><coordinates>56.351317,25.167676,0</coordinates></Point></Placemark><Placemark><name>Nora Medical Polyclinic</name><Point><gx:drawOrder>1</gx:drawOrder><coordinates>54.36726,24.474454,0</coordinates></Point></Placemark><Placemark><name>Kamal Alani</name><Point><gx:drawOrder>1</gx:drawOrder><coordinates>55.389179,25.333771,0</coordinates></Point></Placemark><Placemark><name>Abdul Rahman Shihabi</name><Point><gx:drawOrder>1</gx:drawOrder><coordinates>55.296442,25.256494,0</coordinates></Point></Placemark><Placemark><name>Ahmed Hassan A. Mohd</name><Point><gx:drawOrder>1</gx:drawOrder><coordinates>55.309293,25.275526,0</coordinates></Point></Placemark><Placemark><name>Anand Shenoy</name><Point><gx:drawOrder>1</gx:drawOrder><coordinates>55.277464,25.235489,0</coordinates></Point></Placemark><Placemark><name>Bin Brek</name><Point><gx:drawOrder>1</gx:drawOrder><coordinates>55.301273,25.255947,0</coordinates></Point></Placemark><Placemark><name>Husnia Gargash</name><Point><gx:drawOrder>1</gx:drawOrder><coordinates>55.369166,25.308989,0</coordinates></Point></Placemark><Placemark><name>Jacob Kuruvilla</name><Point><gx:drawOrder>1</gx:drawOrder><coordinates>55.302223,25.245238,0</coordinates></Point></Placemark><Placemark><name>Jyothish George</name><Point><gx:drawOrder>1</gx:drawOrder><coordinates>55.322152,25.270609,0</coordinates></Point></Placemark><Placemark><name>Kamil Al Rustom</name><Point><gx:drawOrder>1</gx:drawOrder><coordinates>55.266799,25.226951,0</coordinates></Point></Placemark><Placemark><name>Maysoon Al Kaisi</name><Point><gx:drawOrder>1</gx:drawOrder><coordinates>55.330041,25.267318,0</coordinates></Point></Placemark><Placemark><name>Michael Formenius</name><Point><gx:drawOrder>1</gx:drawOrder><coordinates>55.217439,25.157171,0</coordinates></Point></Placemark><Placemark><name>Moyad Hassan Flayih</name><Point><gx:drawOrder>1</gx:drawOrder><coordinates>55.34859,25.277331,0</coordinates></Point></Placemark><Placemark><name>Mohamed Sabet Salahia</name><Point><gx:drawOrder>1</gx:drawOrder><coordinates>54.572847,24.403409,0</coordinates></Point></Placemark><Placemark><name>Mojgan Seyed Ahmed Azadi</name><Point><gx:drawOrder>1</gx:drawOrder><coordinates>55.322152,25.270609,0</coordinates></Point></Placemark><Placemark><name>Mustafa Ayad</name><Point><gx:drawOrder>1</gx:drawOrder><coordinates>55.304645,25.278848,0</coordinates></Point></Placemark><Placemark><name>Mustafa Hatim Mahesri</name><Point><gx:drawOrder>1</gx:drawOrder><coordinates>55.322152,25.270609,0</coordinates></Point></Placemark><Placemark><name>Nabil Adnan Said</name><Point><gx:drawOrder>1</gx:drawOrder><coordinates>55.328934,25.263816,0</coordinates></Point></Placemark><Placemark><name>Nouhal Kamel Ibrahim</name><Point><gx:drawOrder>1</gx:drawOrder><coordinates>55.3299,25.2556,0</coordinates></Point></Placemark><Placemark><name>Raymond Hamdan</name><Point><gx:drawOrder>1</gx:drawOrder><coordinates>54.370756,24.495627,0</coordinates></Point></Placemark><Placemark><name>Samitha Rajkumar Nair</name><Point><gx:drawOrder>1</gx:drawOrder><coordinates>55.303072,25.25405,0</coordinates></Point></Placemark><Placemark><name>Taher Hassan Khalil</name><Point><gx:drawOrder>1</gx:drawOrder><coordinates>55.326703,25.26249,0</coordinates></Point></Placemark><Placemark><name>Yarub Kahlan Abdul Majeed</name><Point><gx:drawOrder>1</gx:drawOrder><coordinates>55.34859,25.277331,0</coordinates></Point></Placemark><Placemark><name>Zuhair Sikafi</name><Point><gx:drawOrder>1</gx:drawOrder><coordinates>55.296442,25.256494,0</coordinates></Point></Placemark><Placemark><name>Yousef Nazari</name><Point><gx:drawOrder>1</gx:drawOrder><coordinates>55.34859,25.277331,0</coordinates></Point></Placemark><Placemark><name>Isehaq Zaki Al Dajani</name><Point><gx:drawOrder>1</gx:drawOrder><coordinates>54.360054,24.491643,0</coordinates></Point></Placemark><Placemark><name>Mohd Abdul Razak</name><Point><gx:drawOrder>1</gx:drawOrder><coordinates>55.355752,25.179942,0</coordinates></Point></Placemark><Placemark><name>Jan Paul Hassan</name><Point><gx:drawOrder>1</gx:drawOrder><coordinates>55.309971,25.243638,0</coordinates></Point></Placemark><Placemark><name>Osama M. Jalal</name><Point><gx:drawOrder>1</gx:drawOrder><coordinates>55.3,25.2,0</coordinates></Point></Placemark><Placemark><name>Kadhim Al Himdani</name><Point><gx:drawOrder>1</gx:drawOrder><coordinates>55.38596,25.340582,0</coordinates></Point></Placemark><Placemark><name>Sarmad Aji</name><Point><gx:drawOrder>1</gx:drawOrder><coordinates>55.141462,25.07233,0</coordinates></Point></Placemark><Placemark><name>Allam Al Kowatli</name><Point><gx:drawOrder>1</gx:drawOrder><coordinates>55.237746,25.197292,0</coordinates></Point></Placemark><Placemark><name>Moayad Hasan Flayih</name><Point><gx:drawOrder>1</gx:drawOrder><coordinates>55.34859,25.277331,0</coordinates></Point></Placemark><Placemark><name>Hayder Matouk</name><Point><gx:drawOrder>1</gx:drawOrder><coordinates>55.34859,25.277331,0</coordinates></Point></Placemark><Placemark><name>Ahmed Al Fikry</name><Point><gx:drawOrder>1</gx:drawOrder><coordinates>54.356786,24.491261,0</coordinates></Point></Placemark><Placemark><name>Sameer Al Awadhi</name><Point><gx:drawOrder>1</gx:drawOrder><coordinates>55.34859,25.277331,0</coordinates></Point></Placemark><Placemark><name>Amer Shaker Al-Hashimi</name><Point><gx:drawOrder>1</gx:drawOrder><coordinates>55.3,25.2,0</coordinates></Point></Placemark><Placemark><name>Muwafak Salman</name><Point><gx:drawOrder>1</gx:drawOrder><coordinates>55.3,25.2,0</coordinates></Point></Placemark><Placemark><name>Dunia Kadhum Salman</name><Point><gx:drawOrder>1</gx:drawOrder><coordinates>55.38599,25.340821,0</coordinates></Point></Placemark><Placemark><name>Atiya Anjum</name><Point><gx:drawOrder>1</gx:drawOrder><coordinates>55.322152,25.270609,0</coordinates></Point></Placemark><Placemark><name>Maryam Y. M. Al-Saeed</name><Point><gx:drawOrder>1</gx:drawOrder><coordinates>55.3005959,25.2604326,0</coordinates></Point></Placemark><Placemark><name>Dragana Sarenac</name><Point><gx:drawOrder>1</gx:drawOrder><coordinates>55.201398,25.152979,0</coordinates></Point></Placemark><Placemark><name>Khaled Al Mansoori</name><Point><gx:drawOrder>1</gx:drawOrder><coordinates>55.268596,25.236084,0</coordinates></Point></Placemark><Placemark><name>Maximilian Riewer</name><Point><gx:drawOrder>1</gx:drawOrder><coordinates>55.30152,25.251863,0</coordinates></Point></Placemark><Placemark><name>Marlies Homann</name><Point><gx:drawOrder>1</gx:drawOrder><coordinates>55.30152,25.251863,0</coordinates></Point></Placemark><Placemark><name>Rabih Abi Nader</name><Point><gx:drawOrder>1</gx:drawOrder><coordinates>55.30152,25.251863,0</coordinates></Point></Placemark><Placemark><name>Rabih Mahfouz</name><Point><gx:drawOrder>1</gx:drawOrder><coordinates>55.30152,25.251863,0</coordinates></Point></Placemark><Placemark><name>Ibrahim Abbara</name><Point><gx:drawOrder>1</gx:drawOrder><coordinates>55.276134,25.23748,0</coordinates></Point></Placemark><Placemark><name>Abbas Hussain Mohammed</name><Point><gx:drawOrder>1</gx:drawOrder><coordinates>55.311999,25.273555,0</coordinates></Point></Placemark><Placemark><name>Cedric Coucke</name><Point><gx:drawOrder>1</gx:drawOrder><coordinates>55.227198,25.184267,0</coordinates></Point></Placemark>