<?xml version="1.0" encoding="UTF-8"?><kml xmlns = "http://www.opengis.net/kml/2.2" xmlns:gx="http://www.google.com/kml/ext/2.2" xmlns:kml="http://www.opengis.net/kml/2.2" xmlns:atom="http://www.w3.org/2005/Atom"><Document><name>PP</name><Style id="s_ylw-pushpin"><IconStyle><scale>1.1</scale><Icon><href>http://maps.google.com/mapfiles/kml/pushpin/ylw-pushpin.png</href></Icon><hotSpot x="20" y="2" xunits="pixels" yunits="pixels"/></IconStyle></Style><StyleMap id="m_ylw-pushpin"><Pair><key>normal</key><styleUrl>#s_ylw-pushpin</styleUrl></Pair><Pair><key>highlight</key><styleUrl>#s_ylw-pushpin_hl</styleUrl></Pair></StyleMap><Style id="s_ylw-pushpin_hl"><IconStyle><scale>1.3</scale><Icon><href>http://maps.google.com/mapfiles/kml/pushpin/ylw-pushpin.png</href></Icon><hotSpot x="20" y="2" xunits="pixels" yunits="pixels"/></IconStyle></Style><Placemark><name>Wafi Ph.</name><Point><gx:drawOrder>1</gx:drawOrder><coordinates>55.285799,25.22294,0</coordinates></Point></Placemark><Placemark><name>Al Nejoom</name><Point><gx:drawOrder>1</gx:drawOrder><coordinates>55.380312,25.299786,0</coordinates></Point></Placemark><Placemark><name>Al-Mubark Center</name><Point><gx:drawOrder>1</gx:drawOrder><coordinates>55.393091,25.364818,0</coordinates></Point></Placemark><Placemark><name>Al Manara Pharmacy</name><Point><gx:drawOrder>1</gx:drawOrder><coordinates>55.321876,25.229844,0</coordinates></Point></Placemark><Placemark><name>Bin Sina Pharmacy</name><Point><gx:drawOrder>1</gx:drawOrder><coordinates>55.197885,25.107642,0</coordinates></Point></Placemark><Placemark><name>Dar Al Hekma Pharmacy</name><Point><gx:drawOrder>1</gx:drawOrder><coordinates>55.380725,25.323801,0</coordinates></Point></Placemark><Placemark><name>Life Health Care Group</name><Point><gx:drawOrder>1</gx:drawOrder><coordinates>55.225777,25.107829,0</coordinates></Point></Placemark><Placemark><name>Boots - DIFC</name><Point><gx:drawOrder>1</gx:drawOrder><coordinates>55.278729,25.215085,0</coordinates></Point></Placemark><Placemark><name>Boots - Wafi Shopping Center</name><Point><gx:drawOrder>1</gx:drawOrder><coordinates>55.318973,25.230241,0</coordinates></Point></Placemark><Placemark><name>Boots - Ibn Battuta Mall</name><Point><gx:drawOrder>1</gx:drawOrder><coordinates>55.117593,25.043328,0</coordinates></Point></Placemark><Placemark><name>Life Pharmacy - Natures Life</name><Point><gx:drawOrder>1</gx:drawOrder><coordinates>55.257646,25.212811,0</coordinates></Point></Placemark><Placemark><name>Life Pharmacy - Dubai Life</name><Point><gx:drawOrder>1</gx:drawOrder><coordinates>55.288069,25.227907,0</coordinates></Point></Placemark><Placemark><name>Life Pharmacy- Binseray</name><Point><gx:drawOrder>1</gx:drawOrder><coordinates>55.307415,25.237265,0</coordinates></Point></Placemark><Placemark><name>Life Pharmacy - Safa society</name><Point><gx:drawOrder>1</gx:drawOrder><coordinates>55.236711,25.203774,0</coordinates></Point></Placemark><Placemark><name>Life Pharmacy - Real 10</name><Point><gx:drawOrder>1</gx:drawOrder><coordinates>55.208558,25.125468,0</coordinates></Point></Placemark><Placemark><name>Life Pharmacy - Healthy Life</name><Point><gx:drawOrder>1</gx:drawOrder><coordinates>55.222978,25.118629,0</coordinates></Point></Placemark><Placemark><name>Life Pharmacy - Tecom</name><Point><gx:drawOrder>1</gx:drawOrder><coordinates>55.170106,25.104329,0</coordinates></Point></Placemark><Placemark><name>Life Pharmacy- Town Life</name><Point><gx:drawOrder>1</gx:drawOrder><coordinates>55.425538,25.224585,0</coordinates></Point></Placemark><Placemark><name>Marina Life Pharmacy</name><Point><gx:drawOrder>1</gx:drawOrder><coordinates>55.148385,25.087222,0</coordinates></Point></Placemark></Document></kml>