<?xml version="1.0" encoding="UTF-8"?><kml xmlns = "http://www.opengis.net/kml/2.2" xmlns:gx="http://www.google.com/kml/ext/2.2" xmlns:kml="http://www.opengis.net/kml/2.2" xmlns:atom="http://www.w3.org/2005/Atom"><Document><name>PP</name><Style id="s_ylw-pushpin"><IconStyle><scale>1.1</scale><Icon><href>http://maps.google.com/mapfiles/kml/pushpin/ylw-pushpin.png</href></Icon><hotSpot x="20" y="2" xunits="pixels" yunits="pixels"/></IconStyle></Style><StyleMap id="m_ylw-pushpin"><Pair><key>normal</key><styleUrl>#s_ylw-pushpin</styleUrl></Pair><Pair><key>highlight</key><styleUrl>#s_ylw-pushpin_hl</styleUrl></Pair></StyleMap><Style id="s_ylw-pushpin_hl"><IconStyle><scale>1.3</scale><Icon><href>http://maps.google.com/mapfiles/kml/pushpin/ylw-pushpin.png</href></Icon><hotSpot x="20" y="2" xunits="pixels" yunits="pixels"/></IconStyle></Style><Placemark><name>Al Faisal</name><Point><gx:drawOrder>1</gx:drawOrder><coordinates>46.675966,24.664302,0</coordinates></Point></Placemark><Placemark><name>Anas</name><Point><gx:drawOrder>1</gx:drawOrder><coordinates>-2.862998,48.67009,0</coordinates></Point></Placemark><Placemark><name>Al Oroba</name><Point><gx:drawOrder>1</gx:drawOrder><coordinates>39.173735,21.573483,0</coordinates></Point></Placemark><Placemark><name>AL almea Ph.</name><Point><gx:drawOrder>1</gx:drawOrder><coordinates>18.702711,46.344794,0</coordinates></Point></Placemark><Placemark><name>Al Etahad</name><Point><gx:drawOrder>1</gx:drawOrder><coordinates>35.899984,31.965266,0</coordinates></Point></Placemark><Placemark><name>Rasha Ph.</name><Point><gx:drawOrder>1</gx:drawOrder><coordinates>39.7402199,47.141097,0</coordinates></Point></Placemark><Placemark><name>Alla</name><Point><gx:drawOrder>1</gx:drawOrder><coordinates>-75.161499,39.964403,0</coordinates></Point></Placemark><Placemark><name>Emirates Ph.</name><Point><gx:drawOrder>1</gx:drawOrder><coordinates>121.015519,14.554945,0</coordinates></Point></Placemark><Placemark><name>Al-Matwaa</name><Point><gx:drawOrder>1</gx:drawOrder><coordinates>48.0897372,29.3477355,0</coordinates></Point></Placemark><Placemark><name>Al-Arabia</name><Point><gx:drawOrder>1</gx:drawOrder><coordinates>22.936436,40.63622,0</coordinates></Point></Placemark><Placemark><name>Lubna Ph.</name><Point><gx:drawOrder>1</gx:drawOrder><coordinates>19.624757,52.637446,0</coordinates></Point></Placemark><Placemark><name>Al Soor .</name><Point><gx:drawOrder>1</gx:drawOrder><coordinates>48.105227,29.13785,0</coordinates></Point></Placemark><Placemark><name>Muhrah Ph.</name><Point><gx:drawOrder>1</gx:drawOrder><coordinates>102.278841,2.189479,0</coordinates></Point></Placemark><Placemark><name>AL afia Ph.</name><Point><gx:drawOrder>1</gx:drawOrder><coordinates>-88.456788,41.65885,0</coordinates></Point></Placemark><Placemark><name>Al Afia Pharmacy</name><Point><gx:drawOrder>1</gx:drawOrder><coordinates>35.866199,32.015231,0</coordinates></Point></Placemark><Placemark><name>Modern Pharmacy</name><Point><gx:drawOrder>1</gx:drawOrder><coordinates>-84.477881,45.643957,0</coordinates></Point></Placemark><Placemark><name>AirPort Pharmacy</name><Point><gx:drawOrder>1</gx:drawOrder><coordinates>-79.653213,43.711224,0</coordinates></Point></Placemark><Placemark><name>Pharma Plus</name><Point><gx:drawOrder>1</gx:drawOrder><coordinates>-79.35441,43.79419,0</coordinates></Point></Placemark></Document></kml>