<?xml version="1.0" encoding="UTF-8"?><kml xmlns = "http://www.opengis.net/kml/2.2" xmlns:gx="http://www.google.com/kml/ext/2.2" xmlns:kml="http://www.opengis.net/kml/2.2" xmlns:atom="http://www.w3.org/2005/Atom"><Document><name>PP</name><Style id="s_ylw-pushpin"><IconStyle><scale>1.1</scale><Icon><href>http://maps.google.com/mapfiles/kml/pushpin/ylw-pushpin.png</href></Icon><hotSpot x="20" y="2" xunits="pixels" yunits="pixels"/></IconStyle></Style><StyleMap id="m_ylw-pushpin"><Pair><key>normal</key><styleUrl>#s_ylw-pushpin</styleUrl></Pair><Pair><key>highlight</key><styleUrl>#s_ylw-pushpin_hl</styleUrl></Pair></StyleMap><Style id="s_ylw-pushpin_hl"><IconStyle><scale>1.3</scale><Icon><href>http://maps.google.com/mapfiles/kml/pushpin/ylw-pushpin.png</href></Icon><hotSpot x="20" y="2" xunits="pixels" yunits="pixels"/></IconStyle></Style><Placemark><name>Saleh Mohamad Saleh</name><Point><gx:drawOrder>1</gx:drawOrder><coordinates>31.244549,30.045354,0</coordinates></Point></Placemark><Placemark><name>Abdellah Semein</name><Point><gx:drawOrder>1</gx:drawOrder><coordinates>-117.762099,33.665708,0</coordinates></Point></Placemark><Placemark><name>Laika M Vali</name><Point><gx:drawOrder>1</gx:drawOrder><coordinates>-0.121753,51.534935,0</coordinates></Point></Placemark><Placemark><name>S.M Mostoufi</name><Point><gx:drawOrder>1</gx:drawOrder><coordinates>49.6617903,34.0786069,0</coordinates></Point></Placemark><Placemark><name>K.Gill</name><Point><gx:drawOrder>1</gx:drawOrder><coordinates>-79.748313,43.610193,0</coordinates></Point></Placemark><Placemark><name>Abdul Salam</name><Point><gx:drawOrder>1</gx:drawOrder><coordinates>96.696953,5.209453,0</coordinates></Point></Placemark><Placemark><name>Ahmed Bisher</name><Point><gx:drawOrder>1</gx:drawOrder><coordinates>48.005363,29.357223,0</coordinates></Point></Placemark><Placemark><name>Dr. Jyothk.S.</name><Point><gx:drawOrder>1</gx:drawOrder><coordinates>80.6480153,16.5061743,0</coordinates></Point></Placemark><Placemark><name>Dr. SAEED AL-AMOODI</name><Point><gx:drawOrder>1</gx:drawOrder><coordinates>44.39098,35.46883,0</coordinates></Point></Placemark><Placemark><name>Hassan Ebrah</name><Point><gx:drawOrder>1</gx:drawOrder><coordinates>29.8982,31.19871,0</coordinates></Point></Placemark><Placemark><name>Dileep K. Nambiar</name><Point><gx:drawOrder>1</gx:drawOrder><coordinates>76.357462,10.100243,0</coordinates></Point></Placemark><Placemark><name>Deepa S.Sachdev</name><Point><gx:drawOrder>1</gx:drawOrder><coordinates>73.162322,19.234704,0</coordinates></Point></Placemark><Placemark><name>Kamal Alani</name><Point><gx:drawOrder>1</gx:drawOrder><coordinates>55.389179,25.333771,0</coordinates></Point></Placemark><Placemark><name>Bbetha F.</name><Point><gx:drawOrder>1</gx:drawOrder><coordinates>-95.0628047,46.2666295,0</coordinates></Point></Placemark><Placemark><name>Anand Nathwani</name><Point><gx:drawOrder>1</gx:drawOrder><coordinates>-75.157331,39.949186,0</coordinates></Point></Placemark><Placemark><name>Abdul Latif</name><Point><gx:drawOrder>1</gx:drawOrder><coordinates>39.196298,21.597799,0</coordinates></Point></Placemark><Placemark><name>Hossein Zadeh</name><Point><gx:drawOrder>1</gx:drawOrder><coordinates>-79.960439,40.441901,0</coordinates></Point></Placemark><Placemark><name>A.R.Mahesh Kumar</name><Point><gx:drawOrder>1</gx:drawOrder><coordinates>78.5645172,17.358366,0</coordinates></Point></Placemark><Placemark><name>Abdel Hamid Reda Abd Allah</name><Point><gx:drawOrder>1</gx:drawOrder><coordinates>31.37803,31.0296473,0</coordinates></Point></Placemark><Placemark><name>Abdel Salam Aziz Bishr</name><Point><gx:drawOrder>1</gx:drawOrder><coordinates>29.9965047,31.2544657,0</coordinates></Point></Placemark><Placemark><name>Abdul Hamid Ezzedine</name><Point><gx:drawOrder>1</gx:drawOrder><coordinates>-1.860428,52.470651,0</coordinates></Point></Placemark><Placemark><name>Abdul Nasser Abdul Ghani Mohd</name><Point><gx:drawOrder>1</gx:drawOrder><coordinates>31.2517481,30.1374143,0</coordinates></Point></Placemark><Placemark><name>Abdul Rahman Ali Al Abed</name><Point><gx:drawOrder>1</gx:drawOrder><coordinates>31.3628213,30.1333793,0</coordinates></Point></Placemark><Placemark><name>Abdul Rahman Moh</name><Point><gx:drawOrder>1</gx:drawOrder><coordinates>113.9955592,4.3327501,0</coordinates></Point></Placemark><Placemark><name>Abdul Rahman Shihabi</name><Point><gx:drawOrder>1</gx:drawOrder><coordinates>55.296442,25.256494,0</coordinates></Point></Placemark><Placemark><name>Abdul Razzak Ali Madani</name><Point><gx:drawOrder>1</gx:drawOrder><coordinates>90.258137,23.84901,0</coordinates></Point></Placemark><Placemark><name>Abdul Saeed</name><Point><gx:drawOrder>1</gx:drawOrder><coordinates>70.964869,30.47055,0</coordinates></Point></Placemark><Placemark><name>Abdul Salam Blanco</name><Point><gx:drawOrder>1</gx:drawOrder><coordinates>-0.394491,39.425385,0</coordinates></Point></Placemark><Placemark><name>Abhay Keshao Pande</name><Point><gx:drawOrder>1</gx:drawOrder><coordinates>80.317402,26.490859,0</coordinates></Point></Placemark><Placemark><name>Abul Fazal Akbari</name><Point><gx:drawOrder>1</gx:drawOrder><coordinates>75.812005,26.891442,0</coordinates></Point></Placemark><Placemark><name>Aby Thomas</name><Point><gx:drawOrder>1</gx:drawOrder><coordinates>19.071351,47.482569,0</coordinates></Point></Placemark><Placemark><name>Adel Anis Hajj</name><Point><gx:drawOrder>1</gx:drawOrder><coordinates>31.3503134,30.1321819,0</coordinates></Point></Placemark><Placemark><name>Adel Mohamed Ali</name><Point><gx:drawOrder>1</gx:drawOrder><coordinates>31.243683,30.087483,0</coordinates></Point></Placemark><Placemark><name>Adel Yihya Mohamed</name><Point><gx:drawOrder>1</gx:drawOrder><coordinates>31.2345908,30.0776604,0</coordinates></Point></Placemark><Placemark><name>Adelheid Maria</name><Point><gx:drawOrder>1</gx:drawOrder><coordinates>9.77481,48.721439,0</coordinates></Point></Placemark><Placemark><name>Adham Kamal</name><Point><gx:drawOrder>1</gx:drawOrder><coordinates>31.3349838,29.8358167,0</coordinates></Point></Placemark><Placemark><name>Adnan Abbas Fahli</name><Point><gx:drawOrder>1</gx:drawOrder><coordinates>117.828691,4.312348,0</coordinates></Point></Placemark><Placemark><name>Adnan Ahmed</name><Point><gx:drawOrder>1</gx:drawOrder><coordinates>10.835579,59.832518,0</coordinates></Point></Placemark><Placemark><name>Afaf Abdel Helim Helmy Ahmed</name><Point><gx:drawOrder>1</gx:drawOrder><coordinates>31.2785021,30.0659712,0</coordinates></Point></Placemark><Placemark><name>Ahmed Suleiman Nayal</name><Point><gx:drawOrder>1</gx:drawOrder><coordinates>101.645858,3.111394,0</coordinates></Point></Placemark><Placemark><name>Dr. Ahmed Suleiman Nayal</name><Point><gx:drawOrder>1</gx:drawOrder><coordinates>101.645858,3.111394,0</coordinates></Point></Placemark><Placemark><name>Ahmed Abdullah Kazim</name><Point><gx:drawOrder>1</gx:drawOrder><coordinates>41.278652,39.909862,0</coordinates></Point></Placemark><Placemark><name>Ahmed Adel Fares</name><Point><gx:drawOrder>1</gx:drawOrder><coordinates>31.258546,30.0893212,0</coordinates></Point></Placemark><Placemark><name>Ahmed Fares DC</name><Point><gx:drawOrder>1</gx:drawOrder><coordinates>-77.24288,38.9282,0</coordinates></Point></Placemark><Placemark><name>Ahmed Hassan A. Mohd</name><Point><gx:drawOrder>1</gx:drawOrder><coordinates>55.309293,25.275526,0</coordinates></Point></Placemark><Placemark><name>Ahmed Mohamed Barghash</name><Point><gx:drawOrder>1</gx:drawOrder><coordinates>-74.595786,40.56804,0</coordinates></Point></Placemark><Placemark><name>Ahmed Mustafa</name><Point><gx:drawOrder>1</gx:drawOrder><coordinates>-82.343345,29.639799,0</coordinates></Point></Placemark><Placemark><name>Ahmed Salah Mohammed Soliman</name><Point><gx:drawOrder>1</gx:drawOrder><coordinates>31.2654949,30.1182754,0</coordinates></Point></Placemark><Placemark><name>Ahmed Salah Soliman</name><Point><gx:drawOrder>1</gx:drawOrder><coordinates>31.2416322,30.0855346,0</coordinates></Point></Placemark><Placemark><name>Ahmed Salim Aamir</name><Point><gx:drawOrder>1</gx:drawOrder><coordinates>31.2594582,30.0823601,0</coordinates></Point></Placemark><Placemark><name>Ahmed Yousef</name><Point><gx:drawOrder>1</gx:drawOrder><coordinates>29.983038,31.227508,0</coordinates></Point></Placemark><Placemark><name>Aisha Sultan</name><Point><gx:drawOrder>1</gx:drawOrder><coordinates>29.9040067,31.1985229,0</coordinates></Point></Placemark><Placemark><name>Ajay Juneja</name><Point><gx:drawOrder>1</gx:drawOrder><coordinates>-113.490958,53.542386,0</coordinates></Point></Placemark><Placemark><name>Ajay Kumar Nair</name><Point><gx:drawOrder>1</gx:drawOrder><coordinates>77.320237,28.666833,0</coordinates></Point></Placemark><Placemark><name>Aji Thomas Koshy</name><Point><gx:drawOrder>1</gx:drawOrder><coordinates>-96.954506,32.836066,0</coordinates></Point></Placemark><Placemark><name>Akhil Kumar</name><Point><gx:drawOrder>1</gx:drawOrder><coordinates>81.861024,25.501094,0</coordinates></Point></Placemark><Placemark><name>Akhtar Jahan Malik</name><Point><gx:drawOrder>1</gx:drawOrder><coordinates>-2.211531,53.453922,0</coordinates></Point></Placemark><Placemark><name>Akram Mohamed Khalel Ibrahim</name><Point><gx:drawOrder>1</gx:drawOrder><coordinates>31.537294,30.6049574,0</coordinates></Point></Placemark><Placemark><name>Akram Taha Nouri</name><Point><gx:drawOrder>1</gx:drawOrder><coordinates>55.22679,25.141652,0</coordinates></Point></Placemark><Placemark><name>Al Sayed Kamal Hassan</name><Point><gx:drawOrder>1</gx:drawOrder><coordinates>31.1673722,30.0034063,0</coordinates></Point></Placemark><Placemark><name>Alla Abd Kareem Majeed</name><Point><gx:drawOrder>1</gx:drawOrder><coordinates>-1.860428,52.470651,0</coordinates></Point></Placemark><Placemark><name>Alla Eldeen Abdul Hameed</name><Point><gx:drawOrder>1</gx:drawOrder><coordinates>31.3582292,30.1410428,0</coordinates></Point></Placemark><Placemark><name>Alian Telandro</name><Point><gx:drawOrder>1</gx:drawOrder><coordinates>7.049551,43.549968,0</coordinates></Point></Placemark><Placemark><name>Alex Johin</name><Point><gx:drawOrder>1</gx:drawOrder><coordinates>-73.180426,44.514865,0</coordinates></Point></Placemark><Placemark><name>Alexander Cowie Crawford</name><Point><gx:drawOrder>1</gx:drawOrder><coordinates>-0.121753,51.534935,0</coordinates></Point></Placemark><Placemark><name>Alexander Tosef</name><Point><gx:drawOrder>1</gx:drawOrder><coordinates>34.8156285,32.080136,0</coordinates></Point></Placemark><Placemark><name>Diane Farhang</name><Point><gx:drawOrder>1</gx:drawOrder><coordinates>2.307197,48.883147,0</coordinates></Point></Placemark><Placemark><name>Ali Akbar Bohra</name><Point><gx:drawOrder>1</gx:drawOrder><coordinates>67.0021247,24.8569239,0</coordinates></Point></Placemark><Placemark><name>Ali Hamed</name><Point><gx:drawOrder>1</gx:drawOrder><coordinates>31.345814,30.156246,0</coordinates></Point></Placemark><Placemark><name>Ali Jafar</name><Point><gx:drawOrder>1</gx:drawOrder><coordinates>-95.630653,29.586278,0</coordinates></Point></Placemark><Placemark><name>Ali Hassan</name><Point><gx:drawOrder>1</gx:drawOrder><coordinates>29.941822,31.217996,0</coordinates></Point></Placemark><Placemark><name>Ali Pearal</name><Point><gx:drawOrder>1</gx:drawOrder><coordinates>72.7922344,19.3528336,0</coordinates></Point></Placemark><Placemark><name>Ana Santiago</name><Point><gx:drawOrder>1</gx:drawOrder><coordinates>-70.6462686,-33.4510816,0</coordinates></Point></Placemark><Placemark><name>Anand Shenoy</name><Point><gx:drawOrder>1</gx:drawOrder><coordinates>55.277464,25.235489,0</coordinates></Point></Placemark><Placemark><name>Anders Berggren</name><Point><gx:drawOrder>1</gx:drawOrder><coordinates>14.161788,57.782614,0</coordinates></Point></Placemark><Placemark><name>Andre Wessels</name><Point><gx:drawOrder>1</gx:drawOrder><coordinates>26.73443,-27.96143,0</coordinates></Point></Placemark><Placemark><name>Andereas Schmelzer</name><Point><gx:drawOrder>1</gx:drawOrder><coordinates>6.864657,50.870081,0</coordinates></Point></Placemark><Placemark><name>Anil Kumar</name><Point><gx:drawOrder>1</gx:drawOrder><coordinates>77.22496,28.635308,0</coordinates></Point></Placemark><Placemark><name>Anil Singh</name><Point><gx:drawOrder>1</gx:drawOrder><coordinates>-81.551025,39.277257,0</coordinates></Point></Placemark><Placemark><name>Anitha Mathew</name><Point><gx:drawOrder>1</gx:drawOrder><coordinates>-87.604655,41.788307,0</coordinates></Point></Placemark><Placemark><name>Anna Jacobe</name><Point><gx:drawOrder>1</gx:drawOrder><coordinates>-49.3956076,-20.7751438,0</coordinates></Point></Placemark><Placemark><name>Annie Marie Deglume</name><Point><gx:drawOrder>1</gx:drawOrder><coordinates>6.153547,49.353914,0</coordinates></Point></Placemark><Placemark><name>Anthony Richard Liddel</name><Point><gx:drawOrder>1</gx:drawOrder><coordinates>-82.290188,27.935442,0</coordinates></Point></Placemark><Placemark><name>Anthony Richard Mundy</name><Point><gx:drawOrder>1</gx:drawOrder><coordinates>115.747643,-32.052836,0</coordinates></Point></Placemark><Placemark><name>Anthony Thomas</name><Point><gx:drawOrder>1</gx:drawOrder><coordinates>-83.116894,39.989838,0</coordinates></Point></Placemark><Placemark><name>Antony Chalissery Joseph</name><Point><gx:drawOrder>1</gx:drawOrder><coordinates>76.072571,10.572419,0</coordinates></Point></Placemark><Placemark><name>Anwar Habeeb</name><Point><gx:drawOrder>1</gx:drawOrder><coordinates>78.4656757,17.3914045,0</coordinates></Point></Placemark><Placemark><name>Anwar O.S Atari</name><Point><gx:drawOrder>1</gx:drawOrder><coordinates>81.567241,21.259221,0</coordinates></Point></Placemark><Placemark><name>Anwar Ul Haq Anjum</name><Point><gx:drawOrder>1</gx:drawOrder><coordinates>78.501416,17.351703,0</coordinates></Point></Placemark><Placemark><name>Archana Mohan</name><Point><gx:drawOrder>1</gx:drawOrder><coordinates>88.3616863,22.5907188,0</coordinates></Point></Placemark><Placemark><name>Arjumand Mohamed Akhtar</name><Point><gx:drawOrder>1</gx:drawOrder><coordinates>67.779132,24.853831,0</coordinates></Point></Placemark><Placemark><name>Arti Kishore</name><Point><gx:drawOrder>1</gx:drawOrder><coordinates>76.7892516,31.9915961,0</coordinates></Point></Placemark><Placemark><name>Arun Kumar Sharma</name><Point><gx:drawOrder>1</gx:drawOrder><coordinates>80.96782,26.791712,0</coordinates></Point></Placemark><Placemark><name>Arun Kumar</name><Point><gx:drawOrder>1</gx:drawOrder><coordinates>-73.829608,40.689044,0</coordinates></Point></Placemark><Placemark><name>Arwa Ata Allah Saeed</name><Point><gx:drawOrder>1</gx:drawOrder><coordinates>31.3313267,30.0725556,0</coordinates></Point></Placemark><Placemark><name>Asha Mathur</name><Point><gx:drawOrder>1</gx:drawOrder><coordinates>77.6854643,27.5051443,0</coordinates></Point></Placemark><Placemark><name>Ashidosh Sharma</name><Point><gx:drawOrder>1</gx:drawOrder><coordinates>73.950819,18.556971,0</coordinates></Point></Placemark><Placemark><name>Asokan K.</name><Point><gx:drawOrder>1</gx:drawOrder><coordinates>-74.166341,40.902151,0</coordinates></Point></Placemark><Placemark><name>Aswathi Radhakrishnan</name><Point><gx:drawOrder>1</gx:drawOrder><coordinates>80.2529866,13.0107044,0</coordinates></Point></Placemark><Placemark><name>Ata Daoud O. Abdul Razeq</name><Point><gx:drawOrder>1</gx:drawOrder><coordinates>31.8791363,26.2890626,0</coordinates></Point></Placemark><Placemark><name>Atiq Ur Rehman</name><Point><gx:drawOrder>1</gx:drawOrder><coordinates>67.181657,24.876568,0</coordinates></Point></Placemark><Placemark><name>Atul Anant</name><Point><gx:drawOrder>1</gx:drawOrder><coordinates>73.8293032,18.5027388,0</coordinates></Point></Placemark><Placemark><name>Ayesha Saeed Husaini</name><Point><gx:drawOrder>1</gx:drawOrder><coordinates>-87.626886,41.880272,0</coordinates></Point></Placemark><Placemark><name>Aysha Ali</name><Point><gx:drawOrder>1</gx:drawOrder><coordinates>-87.681727,42.045647,0</coordinates></Point></Placemark><Placemark><name>Azaad Moopen</name><Point><gx:drawOrder>1</gx:drawOrder><coordinates>73.802048,18.564934,0</coordinates></Point></Placemark><Placemark><name>B. Geethan Bhas</name><Point><gx:drawOrder>1</gx:drawOrder><coordinates>-84.5043947,39.1364165,0</coordinates></Point></Placemark><Placemark><name>Babu Daniel</name><Point><gx:drawOrder>1</gx:drawOrder><coordinates>-0.13405,47.00019,0</coordinates></Point></Placemark><Placemark><name>Babu Rafeeq</name><Point><gx:drawOrder>1</gx:drawOrder><coordinates>77.267115,28.710689,0</coordinates></Point></Placemark><Placemark><name>Baby John</name><Point><gx:drawOrder>1</gx:drawOrder><coordinates>76.533469,8.993134,0</coordinates></Point></Placemark><Placemark><name>Baha Dhia Burhan</name><Point><gx:drawOrder>1</gx:drawOrder><coordinates>2.65369,39.593832,0</coordinates></Point></Placemark><Placemark><name>D. Ganeshan</name><Point><gx:drawOrder>1</gx:drawOrder><coordinates>77.136501,10.632434,0</coordinates></Point></Placemark><Placemark><name>D.N .Mathur</name><Point><gx:drawOrder>1</gx:drawOrder><coordinates>75.202688,26.463916,0</coordinates></Point></Placemark><Placemark><name>Bahaa Al deen Ahmed Khair El Deen</name><Point><gx:drawOrder>1</gx:drawOrder><coordinates>31.2406522,30.0838767,0</coordinates></Point></Placemark><Placemark><name>Darly Roy</name><Point><gx:drawOrder>1</gx:drawOrder><coordinates>-80.121363,26.18378,0</coordinates></Point></Placemark><Placemark><name>David Brian Kirkpatrick</name><Point><gx:drawOrder>1</gx:drawOrder><coordinates>-79.3081,43.686992,0</coordinates></Point></Placemark><Placemark><name>David Egbert</name><Point><gx:drawOrder>1</gx:drawOrder><coordinates>-111.855916,40.685781,0</coordinates></Point></Placemark><Placemark><name>Balakrishnan Nair Rajkumar</name><Point><gx:drawOrder>1</gx:drawOrder><coordinates>77.612818,12.980056,0</coordinates></Point></Placemark><Placemark><name>Desmond C. Kwok</name><Point><gx:drawOrder>1</gx:drawOrder><coordinates>-87.62749,41.881184,0</coordinates></Point></Placemark><Placemark><name>Dlip Kumar</name><Point><gx:drawOrder>1</gx:drawOrder><coordinates>80.30221,16.516104,0</coordinates></Point></Placemark><Placemark><name>Dina A. Hassan</name><Point><gx:drawOrder>1</gx:drawOrder><coordinates>31.2392619,29.981814,0</coordinates></Point></Placemark><Placemark><name>Dina Abdulla Hmeid</name><Point><gx:drawOrder>1</gx:drawOrder><coordinates>67.006343,24.849,0</coordinates></Point></Placemark><Placemark><name>Du Liping</name><Point><gx:drawOrder>1</gx:drawOrder><coordinates>112.984895,28.215948,0</coordinates></Point></Placemark><Placemark><name>Elena Zelenova</name><Point><gx:drawOrder>1</gx:drawOrder><coordinates>15.969782,45.813109,0</coordinates></Point></Placemark><Placemark><name>Eliyas Fares Jarad</name><Point><gx:drawOrder>1</gx:drawOrder><coordinates>-84.244744,30.584601,0</coordinates></Point></Placemark><Placemark><name>Engie Tawfik</name><Point><gx:drawOrder>1</gx:drawOrder><coordinates>-93.286068,44.971297,0</coordinates></Point></Placemark><Placemark><name>Fadhil Yousif Anad</name><Point><gx:drawOrder>1</gx:drawOrder><coordinates>-81.396246,40.812185,0</coordinates></Point></Placemark><Placemark><name>Faisal Ali Said Sabra</name><Point><gx:drawOrder>1</gx:drawOrder><coordinates>31.1693479,30.0021184,0</coordinates></Point></Placemark><Placemark><name>Farahat Jabbar Bokhari</name><Point><gx:drawOrder>1</gx:drawOrder><coordinates>-2.211531,53.453922,0</coordinates></Point></Placemark><Placemark><name>Farooq Ashraf</name><Point><gx:drawOrder>1</gx:drawOrder><coordinates>-84.173014,34.05579,0</coordinates></Point></Placemark><Placemark><name>American Chiropractic Clinic</name><Point><gx:drawOrder>1</gx:drawOrder><coordinates>-97.745805,30.361906,0</coordinates></Point></Placemark><Placemark><name>Fatemeh Meymand</name><Point><gx:drawOrder>1</gx:drawOrder><coordinates>-96.735248,32.96083,0</coordinates></Point></Placemark><Placemark><name>Fatima Habib</name><Point><gx:drawOrder>1</gx:drawOrder><coordinates>78.408834,17.45142,0</coordinates></Point></Placemark><Placemark><name>Fatma Taspinar Ali</name><Point><gx:drawOrder>1</gx:drawOrder><coordinates>32.841707,39.947853,0</coordinates></Point></Placemark><Placemark><name>Fouad Nasr El- Din</name><Point><gx:drawOrder>1</gx:drawOrder><coordinates>31.2509758,29.9715166,0</coordinates></Point></Placemark><Placemark><name>Francis John Kennedy</name><Point><gx:drawOrder>1</gx:drawOrder><coordinates>-122.4709223,37.7711374,0</coordinates></Point></Placemark><Placemark><name>Bin Brek</name><Point><gx:drawOrder>1</gx:drawOrder><coordinates>55.301273,25.255947,0</coordinates></Point></Placemark><Placemark><name>G. Vinod Naik</name><Point><gx:drawOrder>1</gx:drawOrder><coordinates>73.809167,18.552827,0</coordinates></Point></Placemark><Placemark><name>Gamal Mohamed Abdul Aal</name><Point><gx:drawOrder>1</gx:drawOrder><coordinates>31.1845929,30.0085352,0</coordinates></Point></Placemark><Placemark><name>Geeta Pillai</name><Point><gx:drawOrder>1</gx:drawOrder><coordinates>-77.476748,39.074111,0</coordinates></Point></Placemark><Placemark><name>Geetha Thampuran</name><Point><gx:drawOrder>1</gx:drawOrder><coordinates>76.283118,9.978513,0</coordinates></Point></Placemark><Placemark><name>George Jacob</name><Point><gx:drawOrder>1</gx:drawOrder><coordinates>76.333311,9.946879,0</coordinates></Point></Placemark><Placemark><name>George Jacob</name><Point><gx:drawOrder>1</gx:drawOrder><coordinates>76.333311,9.946879,0</coordinates></Point></Placemark><Placemark><name>George Mathew</name><Point><gx:drawOrder>1</gx:drawOrder><coordinates>-73.806811,40.675099,0</coordinates></Point></Placemark><Placemark><name>Georges Michel</name><Point><gx:drawOrder>1</gx:drawOrder><coordinates>173.835638,-41.489613,0</coordinates></Point></Placemark><Placemark><name>Gerhard Wolfle</name><Point><gx:drawOrder>1</gx:drawOrder><coordinates>9.376465,51.67329,0</coordinates></Point></Placemark><Placemark><name>Ghada Osama Khalil</name><Point><gx:drawOrder>1</gx:drawOrder><coordinates>-87.626886,41.880272,0</coordinates></Point></Placemark><Placemark><name>Ghanshyam Lal Gupta</name><Point><gx:drawOrder>1</gx:drawOrder><coordinates>77.708831,28.997012,0</coordinates></Point></Placemark><Placemark><name>Ghassan Anis Haddad</name><Point><gx:drawOrder>1</gx:drawOrder><coordinates>55.242658,25.183311,0</coordinates></Point></Placemark><Placemark><name>Gunasekhar Gandhi</name><Point><gx:drawOrder>1</gx:drawOrder><coordinates>78.368665,17.466115,0</coordinates></Point></Placemark><Placemark><name>Habibur Rahman</name><Point><gx:drawOrder>1</gx:drawOrder><coordinates>107.584915,-6.898864,0</coordinates></Point></Placemark><Placemark><name>Halim Mohamed</name><Point><gx:drawOrder>1</gx:drawOrder><coordinates>-81.621347,41.502453,0</coordinates></Point></Placemark><Placemark><name>Halowine Coelho</name><Point><gx:drawOrder>1</gx:drawOrder><coordinates>-43.935488,-19.918031,0</coordinates></Point></Placemark><Placemark><name>Harish Gautam</name><Point><gx:drawOrder>1</gx:drawOrder><coordinates>78.4241882,17.4323224,0</coordinates></Point></Placemark><Placemark><name>Hassan Adel Badran</name><Point><gx:drawOrder>1</gx:drawOrder><coordinates>31.2396661,30.0733757,0</coordinates></Point></Placemark><Placemark><name>Hassan Adel Badran</name><Point><gx:drawOrder>1</gx:drawOrder><coordinates>31.2396661,30.0733757,0</coordinates></Point></Placemark><Placemark><name>Hazim Hassan Mostafa Seif El Nasr</name><Point><gx:drawOrder>1</gx:drawOrder><coordinates>31.246399,30.0658476,0</coordinates></Point></Placemark><Placemark><name>Heinz Kniha</name><Point><gx:drawOrder>1</gx:drawOrder><coordinates>17.460091,49.068679,0</coordinates></Point></Placemark><Placemark><name>Hisham Hamdy Soliman</name><Point><gx:drawOrder>1</gx:drawOrder><coordinates>31.3205908,30.1284567,0</coordinates></Point></Placemark><Placemark><name>Horst Kafer</name><Point><gx:drawOrder>1</gx:drawOrder><coordinates>11.648052,48.137316,0</coordinates></Point></Placemark><Placemark><name>Huda Ebrahim Shaheen</name><Point><gx:drawOrder>1</gx:drawOrder><coordinates>80.273919,13.064102,0</coordinates></Point></Placemark><Placemark><name>Humera Nisar</name><Point><gx:drawOrder>1</gx:drawOrder><coordinates>-122.459093,37.762968,0</coordinates></Point></Placemark><Placemark><name>Husnia Gargash</name><Point><gx:drawOrder>1</gx:drawOrder><coordinates>55.369166,25.308989,0</coordinates></Point></Placemark><Placemark><name>Barbara Ghesquiere</name><Point><gx:drawOrder>1</gx:drawOrder><coordinates>3.340269,51.168553,0</coordinates></Point></Placemark><Placemark><name>Hussain Abdul Rahman</name><Point><gx:drawOrder>1</gx:drawOrder><coordinates>79.5173308,10.7127524,0</coordinates></Point></Placemark><Placemark><name>Ismail Abbara</name><Point><gx:drawOrder>1</gx:drawOrder><coordinates>55.237746,25.197292,0</coordinates></Point></Placemark><Placemark><name>Jacob Kuruvilla</name><Point><gx:drawOrder>1</gx:drawOrder><coordinates>55.302223,25.245238,0</coordinates></Point></Placemark><Placemark><name>Jacqueline Anderson</name><Point><gx:drawOrder>1</gx:drawOrder><coordinates>-121.894024,37.337214,0</coordinates></Point></Placemark><Placemark><name>jaffer Ikram Khan</name><Point><gx:drawOrder>1</gx:drawOrder><coordinates>-87.626886,41.880272,0</coordinates></Point></Placemark><Placemark><name>Jalila Mohamed Mehdi</name><Point><gx:drawOrder>1</gx:drawOrder><coordinates>-7.627655,33.578533,0</coordinates></Point></Placemark><Placemark><name>Jamal Alsaleh</name><Point><gx:drawOrder>1</gx:drawOrder><coordinates>72.9950041,33.9616797,0</coordinates></Point></Placemark><Placemark><name>Jamal Ali Jamal</name><Point><gx:drawOrder>1</gx:drawOrder><coordinates>-87.571539,41.764929,0</coordinates></Point></Placemark><Placemark><name>Janan Abdul Hadi</name><Point><gx:drawOrder>1</gx:drawOrder><coordinates>101.712078,3.1469,0</coordinates></Point></Placemark><Placemark><name>Jayanth N. Murthy</name><Point><gx:drawOrder>1</gx:drawOrder><coordinates>78.437377,17.432499,0</coordinates></Point></Placemark><Placemark><name>Jebby Jacob</name><Point><gx:drawOrder>1</gx:drawOrder><coordinates>-73.82552,40.985693,0</coordinates></Point></Placemark><Placemark><name>Jemini Abraham Paul</name><Point><gx:drawOrder>1</gx:drawOrder><coordinates>12.451383,41.907897,0</coordinates></Point></Placemark><Placemark><name>Joanna Fadel</name><Point><gx:drawOrder>1</gx:drawOrder><coordinates>-87.626886,41.880272,0</coordinates></Point></Placemark><Placemark><name>Jose Garizaldy De Leon Gomez</name><Point><gx:drawOrder>1</gx:drawOrder><coordinates>-4.721128,41.650556,0</coordinates></Point></Placemark><Placemark><name>Jose Ramon</name><Point><gx:drawOrder>1</gx:drawOrder><coordinates>-79.967245,22.410662,0</coordinates></Point></Placemark><Placemark><name>Joseluis Riquelme Saguier</name><Point><gx:drawOrder>1</gx:drawOrder><coordinates>-61.963909,-33.749505,0</coordinates></Point></Placemark><Placemark><name>Joseph Varghese</name><Point><gx:drawOrder>1</gx:drawOrder><coordinates>76.310176,10.003136,0</coordinates></Point></Placemark><Placemark><name>Joy Antony Jacob</name><Point><gx:drawOrder>1</gx:drawOrder><coordinates>-76.946046,39.07883,0</coordinates></Point></Placemark><Placemark><name>Alvares De Toledo</name><Point><gx:drawOrder>1</gx:drawOrder><coordinates>-70.6404569,-33.4920323,0</coordinates></Point></Placemark><Placemark><name>Jyothish George</name><Point><gx:drawOrder>1</gx:drawOrder><coordinates>55.322152,25.270609,0</coordinates></Point></Placemark><Placemark><name>Kailash Hargovind</name><Point><gx:drawOrder>1</gx:drawOrder><coordinates>77.2598554,28.5302564,0</coordinates></Point></Placemark><Placemark><name>K.N. Mohan</name><Point><gx:drawOrder>1</gx:drawOrder><coordinates>78.550317,17.483319,0</coordinates></Point></Placemark><Placemark><name>Kamil Al Rustom</name><Point><gx:drawOrder>1</gx:drawOrder><coordinates>55.266799,25.226951,0</coordinates></Point></Placemark><Placemark><name>KartarSin</name><Point><gx:drawOrder>1</gx:drawOrder><coordinates>75.822652,30.901164,0</coordinates></Point></Placemark><Placemark><name>Kartar Singh Chhabra</name><Point><gx:drawOrder>1</gx:drawOrder><coordinates>75.83832,30.90321,0</coordinates></Point></Placemark><Placemark><name>Kassim Abbas Daoud</name><Point><gx:drawOrder>1</gx:drawOrder><coordinates>-87.626886,41.880272,0</coordinates></Point></Placemark><Placemark><name>Kayasseh</name><Point><gx:drawOrder>1</gx:drawOrder><coordinates>-101.891859,33.577068,0</coordinates></Point></Placemark><Placemark><name>Keerthi Menon</name><Point><gx:drawOrder>1</gx:drawOrder><coordinates>76.190325,10.5176078,0</coordinates></Point></Placemark><Placemark><name>Keith Nichol</name><Point><gx:drawOrder>1</gx:drawOrder><coordinates>-120.6572,35.673729,0</coordinates></Point></Placemark><Placemark><name>Kesava Pillai Raman</name><Point><gx:drawOrder>1</gx:drawOrder><coordinates>80.2897623,13.1263351,0</coordinates></Point></Placemark><Placemark><name>Khaled Walid Sharaf</name><Point><gx:drawOrder>1</gx:drawOrder><coordinates>31.3433367,29.8500015,0</coordinates></Point></Placemark><Placemark><name>Khaled A.Q Kazim</name><Point><gx:drawOrder>1</gx:drawOrder><coordinates>31.3058956,30.0923603,0</coordinates></Point></Placemark><Placemark><name>Khaled Al Jafari</name><Point><gx:drawOrder>1</gx:drawOrder><coordinates>39.2112725,21.4851612,0</coordinates></Point></Placemark><Placemark><name>Khaliq Raza Khan</name><Point><gx:drawOrder>1</gx:drawOrder><coordinates>39.611099,24.46719,0</coordinates></Point></Placemark><Placemark><name>Klara Agneta</name><Point><gx:drawOrder>1</gx:drawOrder><coordinates>18.098204,59.335963,0</coordinates></Point></Placemark><Placemark><name>Kumud Kale</name><Point><gx:drawOrder>1</gx:drawOrder><coordinates>72.812187,19.13844,0</coordinates></Point></Placemark><Placemark><name>Kurian Thomas</name><Point><gx:drawOrder>1</gx:drawOrder><coordinates>-90.265085,38.635238,0</coordinates></Point></Placemark><Placemark><name>Lama Issa</name><Point><gx:drawOrder>1</gx:drawOrder><coordinates>29.9924747,31.2519048,0</coordinates></Point></Placemark><Placemark><name>Lamberto Re.</name><Point><gx:drawOrder>1</gx:drawOrder><coordinates>10.426872,44.631083,0</coordinates></Point></Placemark><Placemark><name>Lara Bachour</name><Point><gx:drawOrder>1</gx:drawOrder><coordinates>-93.262404,44.972097,0</coordinates></Point></Placemark><Placemark><name>Leila Hariri</name><Point><gx:drawOrder>1</gx:drawOrder><coordinates>-118.366401,34.083926,0</coordinates></Point></Placemark><Placemark><name>Li Qian</name><Point><gx:drawOrder>1</gx:drawOrder><coordinates>11.628007,45.510011,0</coordinates></Point></Placemark><Placemark><name>Lizzie John</name><Point><gx:drawOrder>1</gx:drawOrder><coordinates>-97.1407794,49.9041598,0</coordinates></Point></Placemark><Placemark><name>M. Hisham Sahloul</name><Point><gx:drawOrder>1</gx:drawOrder><coordinates>-87.626886,41.880272,0</coordinates></Point></Placemark><Placemark><name>Madhu Anil</name><Point><gx:drawOrder>1</gx:drawOrder><coordinates>72.967178,19.23184,0</coordinates></Point></Placemark><Placemark><name>Madhu Mathews</name><Point><gx:drawOrder>1</gx:drawOrder><coordinates>73.856744,18.52043,0</coordinates></Point></Placemark><Placemark><name>Madhu Durrani</name><Point><gx:drawOrder>1</gx:drawOrder><coordinates>-87.626886,41.880272,0</coordinates></Point></Placemark><Placemark><name>Magdi Iskander PHD</name><Point><gx:drawOrder>1</gx:drawOrder><coordinates>-118.240497,34.136734,0</coordinates></Point></Placemark><Placemark><name>Maha Karim A. Al Yousif</name><Point><gx:drawOrder>1</gx:drawOrder><coordinates>31.254087,30.1179845,0</coordinates></Point></Placemark><Placemark><name>Mahaveer Chand Mehta</name><Point><gx:drawOrder>1</gx:drawOrder><coordinates>73.020563,26.294539,0</coordinates></Point></Placemark><Placemark><name>Maher Sulaiman Ahmed</name><Point><gx:drawOrder>1</gx:drawOrder><coordinates>31.2594582,30.0823601,0</coordinates></Point></Placemark><Placemark><name>Mahmoud Nassan</name><Point><gx:drawOrder>1</gx:drawOrder><coordinates>29.7842425,31.1076181,0</coordinates></Point></Placemark><Placemark><name>Mahmoud Salama Bahgat</name><Point><gx:drawOrder>1</gx:drawOrder><coordinates>31.2389712,30.0316552,0</coordinates></Point></Placemark><Placemark><name>Mahmoud Zaky Shahin</name><Point><gx:drawOrder>1</gx:drawOrder><coordinates>31.3059941,30.158973,0</coordinates></Point></Placemark><Placemark><name>Mahmmad Golshahi</name><Point><gx:drawOrder>1</gx:drawOrder><coordinates>-117.837834,33.80848,0</coordinates></Point></Placemark><Placemark><name>Manohar Krishna Mallay</name><Point><gx:drawOrder>1</gx:drawOrder><coordinates>77.5945627,12.9715987,0</coordinates></Point></Placemark><Placemark><name>Marie E. Ridao Alonso</name><Point><gx:drawOrder>1</gx:drawOrder><coordinates>2.145799,41.41033,0</coordinates></Point></Placemark><Placemark><name>Maria Encarnacion</name><Point><gx:drawOrder>1</gx:drawOrder><coordinates>-58.287007,-34.737579,0</coordinates></Point></Placemark><Placemark><name>Maria Koneva</name><Point><gx:drawOrder>1</gx:drawOrder><coordinates>21.257748,48.720996,0</coordinates></Point></Placemark><Placemark><name>Mariam Simon Sarkis</name><Point><gx:drawOrder>1</gx:drawOrder><coordinates>-0.173194,51.555144,0</coordinates></Point></Placemark><Placemark><name>Marie France Petermans</name><Point><gx:drawOrder>1</gx:drawOrder><coordinates>4.980097,50.120837,0</coordinates></Point></Placemark><Placemark><name>Marisa Loretta</name><Point><gx:drawOrder>1</gx:drawOrder><coordinates>11.99807,44.24474,0</coordinates></Point></Placemark><Placemark><name>Martha Jean Moses</name><Point><gx:drawOrder>1</gx:drawOrder><coordinates>-0.131624,51.513484,0</coordinates></Point></Placemark><Placemark><name>Mary John</name><Point><gx:drawOrder>1</gx:drawOrder><coordinates>-89.624387,44.961961,0</coordinates></Point></Placemark><Placemark><name>Mathew Vivek George</name><Point><gx:drawOrder>1</gx:drawOrder><coordinates>-0.136133,51.51454,0</coordinates></Point></Placemark><Placemark><name>Mathew Zakaria</name><Point><gx:drawOrder>1</gx:drawOrder><coordinates>-1.789609,52.44425,0</coordinates></Point></Placemark><Placemark><name>Maysoon Al Kaisi</name><Point><gx:drawOrder>1</gx:drawOrder><coordinates>55.330041,25.267318,0</coordinates></Point></Placemark><Placemark><name>Messef Abdul Al Razzak</name><Point><gx:drawOrder>1</gx:drawOrder><coordinates>101.708011,3.158572,0</coordinates></Point></Placemark><Placemark><name>Mg Mathew</name><Point><gx:drawOrder>1</gx:drawOrder><coordinates>76.2852154,9.9771478,0</coordinates></Point></Placemark><Placemark><name>Michael Formenius</name><Point><gx:drawOrder>1</gx:drawOrder><coordinates>55.217439,25.157171,0</coordinates></Point></Placemark><Placemark><name>Michael Gahlert</name><Point><gx:drawOrder>1</gx:drawOrder><coordinates>12.145147,51.046836,0</coordinates></Point></Placemark><Placemark><name>Michael Hasan Fakih</name><Point><gx:drawOrder>1</gx:drawOrder><coordinates>-83.997105,43.479128,0</coordinates></Point></Placemark><Placemark><name>Michael Ray Ziegler</name><Point><gx:drawOrder>1</gx:drawOrder><coordinates>-0.177366,51.500909,0</coordinates></Point></Placemark><Placemark><name>Michael Wottrich</name><Point><gx:drawOrder>1</gx:drawOrder><coordinates>9.636129,47.452071,0</coordinates></Point></Placemark><Placemark><name>Michael Jaksch</name><Point><gx:drawOrder>1</gx:drawOrder><coordinates>11.03162,49.45381,0</coordinates></Point></Placemark><Placemark><name>Michelle Champlin</name><Point><gx:drawOrder>1</gx:drawOrder><coordinates>-93.393201,45.185606,0</coordinates></Point></Placemark><Placemark><name>Miduthuri Annapurna</name><Point><gx:drawOrder>1</gx:drawOrder><coordinates>-120.480203,37.318925,0</coordinates></Point></Placemark><Placemark><name>Mirza Imran Baig</name><Point><gx:drawOrder>1</gx:drawOrder><coordinates>-87.626886,41.880272,0</coordinates></Point></Placemark><Placemark><name>Mohamed Ibrahim Ahmed Omara</name><Point><gx:drawOrder>1</gx:drawOrder><coordinates>31.2893247,30.0859663,0</coordinates></Point></Placemark><Placemark><name>Moyad Hassan Flayih</name><Point><gx:drawOrder>1</gx:drawOrder><coordinates>55.34859,25.277331,0</coordinates></Point></Placemark><Placemark><name>Mohamed Ahmed Al Khojal</name><Point><gx:drawOrder>1</gx:drawOrder><coordinates>74.18038,32.165131,0</coordinates></Point></Placemark><Placemark><name>Mohamed Azzam Abdul Salah El Din</name><Point><gx:drawOrder>1</gx:drawOrder><coordinates>31.092301,30.046746,0</coordinates></Point></Placemark><Placemark><name>Mohamed Hicham Sahloul</name><Point><gx:drawOrder>1</gx:drawOrder><coordinates>-87.626886,41.880272,0</coordinates></Point></Placemark><Placemark><name>Mohamed Hosni Gomaa</name><Point><gx:drawOrder>1</gx:drawOrder><coordinates>31.3282499,30.1242833,0</coordinates></Point></Placemark><Placemark><name>Mohamed Ibrahim</name><Point><gx:drawOrder>1</gx:drawOrder><coordinates>-93.369563,45.182793,0</coordinates></Point></Placemark><Placemark><name>Mohamed Kamal Mohamed</name><Point><gx:drawOrder>1</gx:drawOrder><coordinates>31.248589,30.060721,0</coordinates></Point></Placemark><Placemark><name>Mohamed Kasim</name><Point><gx:drawOrder>1</gx:drawOrder><coordinates>78.694126,10.81421,0</coordinates></Point></Placemark><Placemark><name>Mohamed Kunhi</name><Point><gx:drawOrder>1</gx:drawOrder><coordinates>76.215672,10.522431,0</coordinates></Point></Placemark><Placemark><name>Mohamed Sabet Salahia</name><Point><gx:drawOrder>1</gx:drawOrder><coordinates>54.572847,24.403409,0</coordinates></Point></Placemark><Placemark><name>Mohamed Salem Mansour</name><Point><gx:drawOrder>1</gx:drawOrder><coordinates>31.2369252,30.0340043,0</coordinates></Point></Placemark><Placemark><name>Mohamed Shawket Mohammed</name><Point><gx:drawOrder>1</gx:drawOrder><coordinates>31.2003741,30.0118152,0</coordinates></Point></Placemark><Placemark><name>Mohamed Usman Shaikh</name><Point><gx:drawOrder>1</gx:drawOrder><coordinates>31.887804,26.2911696,0</coordinates></Point></Placemark><Placemark><name>Mohamed Yousif Aboobaker</name><Point><gx:drawOrder>1</gx:drawOrder><coordinates>55.334747,25.252296,0</coordinates></Point></Placemark><Placemark><name>Mohamed Daif</name><Point><gx:drawOrder>1</gx:drawOrder><coordinates>31.203836,30.029335,0</coordinates></Point></Placemark><Placemark><name>Mohamed Mazen Tajl</name><Point><gx:drawOrder>1</gx:drawOrder><coordinates>4.360163,50.85127,0</coordinates></Point></Placemark><Placemark><name>Mohammed Ahmed</name><Point><gx:drawOrder>1</gx:drawOrder><coordinates>-94.979618,29.767688,0</coordinates></Point></Placemark><Placemark><name>Mohammed Firdous</name><Point><gx:drawOrder>1</gx:drawOrder><coordinates>72.8332306,18.9488809,0</coordinates></Point></Placemark><Placemark><name>Mohammed Harriss</name><Point><gx:drawOrder>1</gx:drawOrder><coordinates>80.2667214,13.0696271,0</coordinates></Point></Placemark><Placemark><name>Mohammed Hussein Kamel</name><Point><gx:drawOrder>1</gx:drawOrder><coordinates>31.339374,30.119111,0</coordinates></Point></Placemark><Placemark><name>Mohammed Naveed</name><Point><gx:drawOrder>1</gx:drawOrder><coordinates>10.610523,54.894111,0</coordinates></Point></Placemark><Placemark><name>Mohammed Riyaz</name><Point><gx:drawOrder>1</gx:drawOrder><coordinates>73.012673,19.078014,0</coordinates></Point></Placemark><Placemark><name>Mohammed Salleh Al Ani</name><Point><gx:drawOrder>1</gx:drawOrder><coordinates>101.670541,3.131919,0</coordinates></Point></Placemark><Placemark><name>Mohd. Al Khalili</name><Point><gx:drawOrder>1</gx:drawOrder><coordinates>31.261957,30.047719,0</coordinates></Point></Placemark><Placemark><name>Mohd. Al Khalili</name><Point><gx:drawOrder>1</gx:drawOrder><coordinates>31.261957,30.047719,0</coordinates></Point></Placemark><Placemark><name>Mohd. Iqbal</name><Point><gx:drawOrder>1</gx:drawOrder><coordinates>68.954415,26.048053,0</coordinates></Point></Placemark><Placemark><name>Mohd. Mahmoud</name><Point><gx:drawOrder>1</gx:drawOrder><coordinates>11.252118,43.775962,0</coordinates></Point></Placemark><Placemark><name>Mohsen Mirabi</name><Point><gx:drawOrder>1</gx:drawOrder><coordinates>-95.410282,29.699341,0</coordinates></Point></Placemark><Placemark><name>Mojgan Seyed Ahmed Azadi</name><Point><gx:drawOrder>1</gx:drawOrder><coordinates>55.322152,25.270609,0</coordinates></Point></Placemark><Placemark><name>Moly Jose</name><Point><gx:drawOrder>1</gx:drawOrder><coordinates>2.782668,42.654183,0</coordinates></Point></Placemark><Placemark><name>Moosa Mohd Ali Abdulla Kazim</name><Point><gx:drawOrder>1</gx:drawOrder><coordinates>7.531313,51.61891,0</coordinates></Point></Placemark><Placemark><name>Aiman</name><Point><gx:drawOrder>1</gx:drawOrder><coordinates>-82.205326,28.207744,0</coordinates></Point></Placemark><Placemark><name>Ivy Kuruvilla</name><Point><gx:drawOrder>1</gx:drawOrder><coordinates>-76.482244,42.44723,0</coordinates></Point></Placemark><Placemark><name>Muhammad Tariq</name><Point><gx:drawOrder>1</gx:drawOrder><coordinates>-84.775595,37.644928,0</coordinates></Point></Placemark><Placemark><name>Murali Srinivasan</name><Point><gx:drawOrder>1</gx:drawOrder><coordinates>-118.430027,34.218814,0</coordinates></Point></Placemark><Placemark><name>Mustafa Ayad</name><Point><gx:drawOrder>1</gx:drawOrder><coordinates>55.304645,25.278848,0</coordinates></Point></Placemark><Placemark><name>Mustafa Hatim Mahesri</name><Point><gx:drawOrder>1</gx:drawOrder><coordinates>55.322152,25.270609,0</coordinates></Point></Placemark><Placemark><name>Nabil Adnan Said</name><Point><gx:drawOrder>1</gx:drawOrder><coordinates>55.328934,25.263816,0</coordinates></Point></Placemark><Placemark><name>Nabil Emam Khedr</name><Point><gx:drawOrder>1</gx:drawOrder><coordinates>31.3326856,30.1193471,0</coordinates></Point></Placemark><Placemark><name>Nabil Mohd Hidayat</name><Point><gx:drawOrder>1</gx:drawOrder><coordinates>102.231395,2.268952,0</coordinates></Point></Placemark><Placemark><name>Naga Srinivas</name><Point><gx:drawOrder>1</gx:drawOrder><coordinates>77.5924947,12.9647698,0</coordinates></Point></Placemark><Placemark><name>Narayan Vasudev Ghandi</name><Point><gx:drawOrder>1</gx:drawOrder><coordinates>72.5966363,23.0286312,0</coordinates></Point></Placemark><Placemark><name>Naresh K Dhar</name><Point><gx:drawOrder>1</gx:drawOrder><coordinates>75.933681,22.680104,0</coordinates></Point></Placemark><Placemark><name>Nasrin Amiri</name><Point><gx:drawOrder>1</gx:drawOrder><coordinates>-118.554308,34.172495,0</coordinates></Point></Placemark><Placemark><name>Nasser El Salah</name><Point><gx:drawOrder>1</gx:drawOrder><coordinates>31.2462486,30.0720316,0</coordinates></Point></Placemark><Placemark><name>Nawab Shafiul Mulk</name><Point><gx:drawOrder>1</gx:drawOrder><coordinates>78.0716117,27.9197683,0</coordinates></Point></Placemark><Placemark><name>Nawal Al Abbas Sultan</name><Point><gx:drawOrder>1</gx:drawOrder><coordinates>31.2406755,30.1285353,0</coordinates></Point></Placemark><Placemark><name>Nazir Jamil Ahmed</name><Point><gx:drawOrder>1</gx:drawOrder><coordinates>-1.860428,52.470651,0</coordinates></Point></Placemark><Placemark><name>Neda Nafei</name><Point><gx:drawOrder>1</gx:drawOrder><coordinates>-121.981023,37.553302,0</coordinates></Point></Placemark><Placemark><name>Niaz Ahmed Khan</name><Point><gx:drawOrder>1</gx:drawOrder><coordinates>-73.623059,45.529292,0</coordinates></Point></Placemark><Placemark><name>Nizar Ishaq</name><Point><gx:drawOrder>1</gx:drawOrder><coordinates>55.231997,25.176249,0</coordinates></Point></Placemark><Placemark><name>Nora Jane Powell</name><Point><gx:drawOrder>1</gx:drawOrder><coordinates>-86.144327,39.913002,0</coordinates></Point></Placemark><Placemark><name>Nouha Kamel Ibrahim</name><Point><gx:drawOrder>1</gx:drawOrder><coordinates>32.299062,31.267534,0</coordinates></Point></Placemark><Placemark><name>Nouhal Kamel Ibrahim</name><Point><gx:drawOrder>1</gx:drawOrder><coordinates>55.3299,25.2556,0</coordinates></Point></Placemark><Placemark><name>Omar Faraz</name><Point><gx:drawOrder>1</gx:drawOrder><coordinates>31.27663,30.0872934,0</coordinates></Point></Placemark><Placemark><name>Osama Helmei Ahmed Ibrahim</name><Point><gx:drawOrder>1</gx:drawOrder><coordinates>31.264271,30.1189239,0</coordinates></Point></Placemark><Placemark><name>P.N Mathur</name><Point><gx:drawOrder>1</gx:drawOrder><coordinates>73.727108,24.568474,0</coordinates></Point></Placemark><Placemark><name>P.G Sasikala</name><Point><gx:drawOrder>1</gx:drawOrder><coordinates>74.73702,19.094388,0</coordinates></Point></Placemark><Placemark><name>P.K. Shobhana</name><Point><gx:drawOrder>1</gx:drawOrder><coordinates>76.784715,9.497077,0</coordinates></Point></Placemark><Placemark><name>P.S Kumar</name><Point><gx:drawOrder>1</gx:drawOrder><coordinates>78.612762,17.490129,0</coordinates></Point></Placemark><Placemark><name>Paul Peter Tak</name><Point><gx:drawOrder>1</gx:drawOrder><coordinates>5.113127,52.245003,0</coordinates></Point></Placemark><Placemark><name>Pekka Johannes</name><Point><gx:drawOrder>1</gx:drawOrder><coordinates>24.887131,60.20996,0</coordinates></Point></Placemark><Placemark><name>Peer Mohamed Rafique</name><Point><gx:drawOrder>1</gx:drawOrder><coordinates>-87.626886,41.880272,0</coordinates></Point></Placemark><Placemark><name>Peter Arthur Dickinson</name><Point><gx:drawOrder>1</gx:drawOrder><coordinates>-0.102849,51.544768,0</coordinates></Point></Placemark><Placemark><name>Peter Gonsalves</name><Point><gx:drawOrder>1</gx:drawOrder><coordinates>73.9050882,15.3309238,0</coordinates></Point></Placemark><Placemark><name>Piet P. Bekaert</name><Point><gx:drawOrder>1</gx:drawOrder><coordinates>6.781039,51.221004,0</coordinates></Point></Placemark><Placemark><name>Ponnappan Joy</name><Point><gx:drawOrder>1</gx:drawOrder><coordinates>75.912015,12.147201,0</coordinates></Point></Placemark><Placemark><name>Parchi Khare</name><Point><gx:drawOrder>1</gx:drawOrder><coordinates>79.0630932,21.1389989,0</coordinates></Point></Placemark><Placemark><name>Prakash Sebastian</name><Point><gx:drawOrder>1</gx:drawOrder><coordinates>72.824115,19.0522497,0</coordinates></Point></Placemark><Placemark><name>Praveen Kumari Mathur</name><Point><gx:drawOrder>1</gx:drawOrder><coordinates>77.22496,28.635308,0</coordinates></Point></Placemark><Placemark><name>Punnoose George</name><Point><gx:drawOrder>1</gx:drawOrder><coordinates>76.303467,10.01486,0</coordinates></Point></Placemark><Placemark><name>Rabih Abi Nader</name><Point><gx:drawOrder>1</gx:drawOrder><coordinates>55.30152,25.251863,0</coordinates></Point></Placemark><Placemark><name>Rachid Hadj Hamou</name><Point><gx:drawOrder>1</gx:drawOrder><coordinates>4.1302,36.89233,0</coordinates></Point></Placemark><Placemark><name>Radhika Ramesh</name><Point><gx:drawOrder>1</gx:drawOrder><coordinates>-84.56121,39.013582,0</coordinates></Point></Placemark><Placemark><name>Raeba Mathew</name><Point><gx:drawOrder>1</gx:drawOrder><coordinates>80.35155,26.472928,0</coordinates></Point></Placemark><Placemark><name>Raghib Husain</name><Point><gx:drawOrder>1</gx:drawOrder><coordinates>114.935553,4.902278,0</coordinates></Point></Placemark><Placemark><name>Rahul Kumar Gupta</name><Point><gx:drawOrder>1</gx:drawOrder><coordinates>85.989191,23.762,0</coordinates></Point></Placemark><Placemark><name>Rajanikant N. Shah</name><Point><gx:drawOrder>1</gx:drawOrder><coordinates>72.596636,23.028631,0</coordinates></Point></Placemark><Placemark><name>Rajendra M. Joshi</name><Point><gx:drawOrder>1</gx:drawOrder><coordinates>72.8382547,18.9908177,0</coordinates></Point></Placemark><Placemark><name>Rajendrakumar H. Soni</name><Point><gx:drawOrder>1</gx:drawOrder><coordinates>75.82932,26.92244,0</coordinates></Point></Placemark><Placemark><name>Raji Chandran</name><Point><gx:drawOrder>1</gx:drawOrder><coordinates>80.221921,13.041769,0</coordinates></Point></Placemark><Placemark><name>Raji Chandran</name><Point><gx:drawOrder>1</gx:drawOrder><coordinates>80.221921,13.041769,0</coordinates></Point></Placemark><Placemark><name>Rajiv Puri</name><Point><gx:drawOrder>1</gx:drawOrder><coordinates>-117.290897,34.483984,0</coordinates></Point></Placemark><Placemark><name>Ram Manohar Sankara</name><Point><gx:drawOrder>1</gx:drawOrder><coordinates>76.881987,8.557352,0</coordinates></Point></Placemark><Placemark><name>Rana Issmail</name><Point><gx:drawOrder>1</gx:drawOrder><coordinates>74.3123757,31.4506907,0</coordinates></Point></Placemark><Placemark><name>Ranya Ali Rasheed</name><Point><gx:drawOrder>1</gx:drawOrder><coordinates>44.345482,33.370799,0</coordinates></Point></Placemark><Placemark><name>Ratan Parakash Bajaj</name><Point><gx:drawOrder>1</gx:drawOrder><coordinates>72.8204386,18.9141224,0</coordinates></Point></Placemark><Placemark><name>Ratna Nehru</name><Point><gx:drawOrder>1</gx:drawOrder><coordinates>74.549841,15.892653,0</coordinates></Point></Placemark><Placemark><name>Ravi Rathore</name><Point><gx:drawOrder>1</gx:drawOrder><coordinates>75.79333,23.177589,0</coordinates></Point></Placemark><Placemark><name>Raymond Hamdan</name><Point><gx:drawOrder>1</gx:drawOrder><coordinates>54.370756,24.495627,0</coordinates></Point></Placemark><Placemark><name>Reem Abdul Hadi</name><Point><gx:drawOrder>1</gx:drawOrder><coordinates>-87.626886,41.880272,0</coordinates></Point></Placemark><Placemark><name>Regi Thomas</name><Point><gx:drawOrder>1</gx:drawOrder><coordinates>76.293729,9.992012,0</coordinates></Point></Placemark><Placemark><name>Rene MA .S. Borromeo</name><Point><gx:drawOrder>1</gx:drawOrder><coordinates>124.234887,8.010856,0</coordinates></Point></Placemark><Placemark><name>Renu Jacob</name><Point><gx:drawOrder>1</gx:drawOrder><coordinates>-119.8281051,39.5683005,0</coordinates></Point></Placemark><Placemark><name>Richard Eldon Morris</name><Point><gx:drawOrder>1</gx:drawOrder><coordinates>-71.784046,42.279964,0</coordinates></Point></Placemark><Placemark><name>Rita Kovesdi</name><Point><gx:drawOrder>1</gx:drawOrder><coordinates>20.781428,48.10256,0</coordinates></Point></Placemark><Placemark><name>Rizwan Abdul Qadir Kazi</name><Point><gx:drawOrder>1</gx:drawOrder><coordinates>-1.860428,52.470651,0</coordinates></Point></Placemark><Placemark><name>Rosamma Joseph</name><Point><gx:drawOrder>1</gx:drawOrder><coordinates>-76.144607,43.044618,0</coordinates></Point></Placemark><Placemark><name>Rosario B. Tigano</name><Point><gx:drawOrder>1</gx:drawOrder><coordinates>15.073961,37.520788,0</coordinates></Point></Placemark><Placemark><name>S.M S. Pillai</name><Point><gx:drawOrder>1</gx:drawOrder><coordinates>72.810385,19.378509,0</coordinates></Point></Placemark><Placemark><name>Sabu Antony K.</name><Point><gx:drawOrder>1</gx:drawOrder><coordinates>76.357462,10.100243,0</coordinates></Point></Placemark><Placemark><name>Sachdev Kanchan</name><Point><gx:drawOrder>1</gx:drawOrder><coordinates>77.026638,28.459496,0</coordinates></Point></Placemark><Placemark><name>Sachin Ramakant</name><Point><gx:drawOrder>1</gx:drawOrder><coordinates>82.987455,25.323113,0</coordinates></Point></Placemark><Placemark><name>Sachin Ramakant</name><Point><gx:drawOrder>1</gx:drawOrder><coordinates>82.987455,25.323113,0</coordinates></Point></Placemark><Placemark><name>Saeed Mehboob Khan</name><Point><gx:drawOrder>1</gx:drawOrder><coordinates>78.4779505,17.3602611,0</coordinates></Point></Placemark><Placemark><name>Saji John Mathews</name><Point><gx:drawOrder>1</gx:drawOrder><coordinates>76.712787,9.336358,0</coordinates></Point></Placemark><Placemark><name>Slith Mathew</name><Point><gx:drawOrder>1</gx:drawOrder><coordinates>-119.062604,36.063318,0</coordinates></Point></Placemark><Placemark><name>Slith Mathew</name><Point><gx:drawOrder>1</gx:drawOrder><coordinates>-119.062604,36.063318,0</coordinates></Point></Placemark><Placemark><name>Saju John Manavalan</name><Point><gx:drawOrder>1</gx:drawOrder><coordinates>76.285837,9.99727,0</coordinates></Point></Placemark><Placemark><name>Salah Haddad</name><Point><gx:drawOrder>1</gx:drawOrder><coordinates>3.086062,45.773699,0</coordinates></Point></Placemark><Placemark><name>Salah Mehdi Al Rubai</name><Point><gx:drawOrder>1</gx:drawOrder><coordinates>112.669043,-7.909121,0</coordinates></Point></Placemark><Placemark><name>Salam Al Khayyat</name><Point><gx:drawOrder>1</gx:drawOrder><coordinates>46.7356568,24.6362179,0</coordinates></Point></Placemark><Placemark><name>Saleem</name><Point><gx:drawOrder>1</gx:drawOrder><coordinates>144.965379,-37.740882,0</coordinates></Point></Placemark><Placemark><name>Salim Khamissa Omar</name><Point><gx:drawOrder>1</gx:drawOrder><coordinates>31.2593493,30.0514765,0</coordinates></Point></Placemark><Placemark><name>Sally Kareem Atta</name><Point><gx:drawOrder>1</gx:drawOrder><coordinates>39.611099,24.46719,0</coordinates></Point></Placemark><Placemark><name>Salman Hameed</name><Point><gx:drawOrder>1</gx:drawOrder><coordinates>31.3327101,30.1515231,0</coordinates></Point></Placemark><Placemark><name>Salwa Khalil M. Ali</name><Point><gx:drawOrder>1</gx:drawOrder><coordinates>31.2839792,30.1329873,0</coordinates></Point></Placemark><Placemark><name>Samah Samir Hassan</name><Point><gx:drawOrder>1</gx:drawOrder><coordinates>31.2030736,30.0903595,0</coordinates></Point></Placemark><Placemark><name>Samir Hussen Bushnaq</name><Point><gx:drawOrder>1</gx:drawOrder><coordinates>44.39098,35.46883,0</coordinates></Point></Placemark><Placemark><name>Samir Mohamad Mansouri</name><Point><gx:drawOrder>1</gx:drawOrder><coordinates>31.2137377,30.0436765,0</coordinates></Point></Placemark><Placemark><name>Samitha Rajkumar Nair</name><Point><gx:drawOrder>1</gx:drawOrder><coordinates>55.303072,25.25405,0</coordinates></Point></Placemark><Placemark><name>Samy Ayad Saleh Hanna</name><Point><gx:drawOrder>1</gx:drawOrder><coordinates>124.234887,8.010856,0</coordinates></Point></Placemark><Placemark><name>Sanna Abdel Moniem Awad</name><Point><gx:drawOrder>1</gx:drawOrder><coordinates>31.2355246,30.0210906,0</coordinates></Point></Placemark><Placemark><name>Sandeep Ganapathi Mallya</name><Point><gx:drawOrder>1</gx:drawOrder><coordinates>77.5945627,12.9715987,0</coordinates></Point></Placemark><Placemark><name>Sanjay Bhalla</name><Point><gx:drawOrder>1</gx:drawOrder><coordinates>80.907432,26.862519,0</coordinates></Point></Placemark><Placemark><name>Sant Rosalle</name><Point><gx:drawOrder>1</gx:drawOrder><coordinates>14.759564,36.860744,0</coordinates></Point></Placemark><Placemark><name>Sara John</name><Point><gx:drawOrder>1</gx:drawOrder><coordinates>-84.452563,42.748681,0</coordinates></Point></Placemark><Placemark><name>Sasikumar Narayana</name><Point><gx:drawOrder>1</gx:drawOrder><coordinates>77.210755,8.404791,0</coordinates></Point></Placemark><Placemark><name>Sathish Chandran V. Ramachandran</name><Point><gx:drawOrder>1</gx:drawOrder><coordinates>76.357462,10.100243,0</coordinates></Point></Placemark><Placemark><name>Savita Vinod Jain</name><Point><gx:drawOrder>1</gx:drawOrder><coordinates>77.038461,28.592821,0</coordinates></Point></Placemark><Placemark><name>Sawsan Tawfiq Mohd</name><Point><gx:drawOrder>1</gx:drawOrder><coordinates>-73.678031,45.511758,0</coordinates></Point></Placemark><Placemark><name>Sayed Jaffer Mohammed</name><Point><gx:drawOrder>1</gx:drawOrder><coordinates>78.476129,17.3657667,0</coordinates></Point></Placemark><Placemark><name>Sergei Vassiliev</name><Point><gx:drawOrder>1</gx:drawOrder><coordinates>-0.158716,51.490697,0</coordinates></Point></Placemark><Placemark><name>Seyed M. Saleh Mansouri</name><Point><gx:drawOrder>1</gx:drawOrder><coordinates>31.2137377,30.0436765,0</coordinates></Point></Placemark><Placemark><name>Shabbir Saifuddin</name><Point><gx:drawOrder>1</gx:drawOrder><coordinates>72.81845,18.952337,0</coordinates></Point></Placemark><Placemark><name>Shaheen Mohamed Basheer</name><Point><gx:drawOrder>1</gx:drawOrder><coordinates>31.2565,30.120072,0</coordinates></Point></Placemark><Placemark><name>Shheen Mohamed</name><Point><gx:drawOrder>1</gx:drawOrder><coordinates>31.293846,29.892352,0</coordinates></Point></Placemark><Placemark><name>Shaistha Khanam</name><Point><gx:drawOrder>1</gx:drawOrder><coordinates>-69.767859,44.313368,0</coordinates></Point></Placemark><Placemark><name>Shaker Hussain Ali Mohd</name><Point><gx:drawOrder>1</gx:drawOrder><coordinates>31.2726861,30.0899447,0</coordinates></Point></Placemark><Placemark><name>Shashikala</name><Point><gx:drawOrder>1</gx:drawOrder><coordinates>74.73702,19.094388,0</coordinates></Point></Placemark><Placemark><name>Sheikh Hassan Usman</name><Point><gx:drawOrder>1</gx:drawOrder><coordinates>31.887804,26.2911696,0</coordinates></Point></Placemark><Placemark><name>Sheikh Irshad</name><Point><gx:drawOrder>1</gx:drawOrder><coordinates>73.049902,33.629103,0</coordinates></Point></Placemark><Placemark><name>Sheikh Sameer</name><Point><gx:drawOrder>1</gx:drawOrder><coordinates>-115.315867,36.162504,0</coordinates></Point></Placemark><Placemark><name>Sherif Mohamed Zaki</name><Point><gx:drawOrder>1</gx:drawOrder><coordinates>29.902337,31.201651,0</coordinates></Point></Placemark><Placemark><name>Sherif Nabil Embabi</name><Point><gx:drawOrder>1</gx:drawOrder><coordinates>31.2998204,30.1198744,0</coordinates></Point></Placemark><Placemark><name>Shobha Nair</name><Point><gx:drawOrder>1</gx:drawOrder><coordinates>72.870109,19.116214,0</coordinates></Point></Placemark><Placemark><name>Soman R. Pillai</name><Point><gx:drawOrder>1</gx:drawOrder><coordinates>76.303467,10.01486,0</coordinates></Point></Placemark><Placemark><name>Somanath Syamnath</name><Point><gx:drawOrder>1</gx:drawOrder><coordinates>70.3843721,20.9060022,0</coordinates></Point></Placemark><Placemark><name>Sonali Datta</name><Point><gx:drawOrder>1</gx:drawOrder><coordinates>88.263639,22.595769,0</coordinates></Point></Placemark><Placemark><name>Sophie De Cort</name><Point><gx:drawOrder>1</gx:drawOrder><coordinates>9.150388,42.309024,0</coordinates></Point></Placemark><Placemark><name>Sreedharan Nair</name><Point><gx:drawOrder>1</gx:drawOrder><coordinates>76.969131,8.479742,0</coordinates></Point></Placemark><Placemark><name>Suad Abdullah Lutfi</name><Point><gx:drawOrder>1</gx:drawOrder><coordinates>101.645858,3.111394,0</coordinates></Point></Placemark><Placemark><name>Sudhir Rama Varma</name><Point><gx:drawOrder>1</gx:drawOrder><coordinates>78.412953,17.425891,0</coordinates></Point></Placemark><Placemark><name>Sumaira Rashid Mir</name><Point><gx:drawOrder>1</gx:drawOrder><coordinates>72.919899,33.630789,0</coordinates></Point></Placemark><Placemark><name>Sumeet Dhillon</name><Point><gx:drawOrder>1</gx:drawOrder><coordinates>138.559709,-34.924082,0</coordinates></Point></Placemark><Placemark><name>Sunail Mathew</name><Point><gx:drawOrder>1</gx:drawOrder><coordinates>-83.059527,42.355523,0</coordinates></Point></Placemark><Placemark><name>Sunil Kumar</name><Point><gx:drawOrder>1</gx:drawOrder><coordinates>85.109226,25.581649,0</coordinates></Point></Placemark><Placemark><name>Suresh Gopinathan</name><Point><gx:drawOrder>1</gx:drawOrder><coordinates>77.06656,8.412432,0</coordinates></Point></Placemark><Placemark><name>Suresh K. Menon</name><Point><gx:drawOrder>1</gx:drawOrder><coordinates>-77.414181,39.423202,0</coordinates></Point></Placemark><Placemark><name>Susan Catherine Norton</name><Point><gx:drawOrder>1</gx:drawOrder><coordinates>-87.635281,41.888338,0</coordinates></Point></Placemark><Placemark><name>Syed Akram</name><Point><gx:drawOrder>1</gx:drawOrder><coordinates>78.326586,18.32554,0</coordinates></Point></Placemark><Placemark><name>Syed Mohamed Abdullah</name><Point><gx:drawOrder>1</gx:drawOrder><coordinates>101.602013,3.054082,0</coordinates></Point></Placemark><Placemark><name>T. Mutharasu</name><Point><gx:drawOrder>1</gx:drawOrder><coordinates>77.970653,8.540363,0</coordinates></Point></Placemark><Placemark><name>Taher Hassan Khalil</name><Point><gx:drawOrder>1</gx:drawOrder><coordinates>55.326703,25.26249,0</coordinates></Point></Placemark><Placemark><name>Tamer Fathi Amin Salem</name><Point><gx:drawOrder>1</gx:drawOrder><coordinates>31.1938964,30.0191141,0</coordinates></Point></Placemark><Placemark><name>Tanveer Ahmed</name><Point><gx:drawOrder>1</gx:drawOrder><coordinates>-73.991896,40.736678,0</coordinates></Point></Placemark><Placemark><name>Tarek Fuad Tawil</name><Point><gx:drawOrder>1</gx:drawOrder><coordinates>31.2003471,30.0777894,0</coordinates></Point></Placemark><Placemark><name>Tareq Mhmood Faiz Mahmood</name><Point><gx:drawOrder>1</gx:drawOrder><coordinates>68.620556,25.922778,0</coordinates></Point></Placemark><Placemark><name>Tarun Walia</name><Point><gx:drawOrder>1</gx:drawOrder><coordinates>77.1195817,28.697072,0</coordinates></Point></Placemark><Placemark><name>Thomas Jose</name><Point><gx:drawOrder>1</gx:drawOrder><coordinates>-71.068937,42.362466,0</coordinates></Point></Placemark><Placemark><name>Thomas Joseph Watson</name><Point><gx:drawOrder>1</gx:drawOrder><coordinates>-85.324924,41.073146,0</coordinates></Point></Placemark><Placemark><name>Tina Helena Nyberg</name><Point><gx:drawOrder>1</gx:drawOrder><coordinates>18.07803,59.253701,0</coordinates></Point></Placemark><Placemark><name>Tomas Richard Alexander Von Post</name><Point><gx:drawOrder>1</gx:drawOrder><coordinates>-0.116629,51.505806,0</coordinates></Point></Placemark><Placemark><name>Trevor Graham Pinn</name><Point><gx:drawOrder>1</gx:drawOrder><coordinates>-1.23086,50.725477,0</coordinates></Point></Placemark><Placemark><name>Udaya Ballal</name><Point><gx:drawOrder>1</gx:drawOrder><coordinates>76.6408982,12.2934923,0</coordinates></Point></Placemark><Placemark><name>Usha Suresh</name><Point><gx:drawOrder>1</gx:drawOrder><coordinates>72.841901,19.191102,0</coordinates></Point></Placemark><Placemark><name>V.Y Gawande</name><Point><gx:drawOrder>1</gx:drawOrder><coordinates>75.886101,19.835752,0</coordinates></Point></Placemark><Placemark><name>Valerina Y. Fernandes</name><Point><gx:drawOrder>1</gx:drawOrder><coordinates>-38.4496592,-12.9104246,0</coordinates></Point></Placemark><Placemark><name>Valsa Mathew</name><Point><gx:drawOrder>1</gx:drawOrder><coordinates>-0.126753,51.508791,0</coordinates></Point></Placemark><Placemark><name>Vani Krishhna Warrier</name><Point><gx:drawOrder>1</gx:drawOrder><coordinates>77.612818,12.980056,0</coordinates></Point></Placemark><Placemark><name>Varadharajan Ramesh</name><Point><gx:drawOrder>1</gx:drawOrder><coordinates>80.222707,13.04899,0</coordinates></Point></Placemark><Placemark><name>Dr. Maske Medical Clinic</name><Point><gx:drawOrder>1</gx:drawOrder><coordinates>-84.355885,33.907306,0</coordinates></Point></Placemark><Placemark><name>Vasu Devan Nair Sasikumar</name><Point><gx:drawOrder>1</gx:drawOrder><coordinates>76.909543,8.513629,0</coordinates></Point></Placemark><Placemark><name>Vibha Sharma</name><Point><gx:drawOrder>1</gx:drawOrder><coordinates>-71.554864,42.353755,0</coordinates></Point></Placemark><Placemark><name>American Chiropractic Center</name><Point><gx:drawOrder>1</gx:drawOrder><coordinates>-85.648424,42.905446,0</coordinates></Point></Placemark><Placemark><name>Vijay Kumar Tarneja</name><Point><gx:drawOrder>1</gx:drawOrder><coordinates>75.8918811,22.7316281,0</coordinates></Point></Placemark><Placemark><name>Vimala Vinod</name><Point><gx:drawOrder>1</gx:drawOrder><coordinates>78.5341626,17.4597596,0</coordinates></Point></Placemark><Placemark><name>Vinod Jain</name><Point><gx:drawOrder>1</gx:drawOrder><coordinates>75.584253,31.310665,0</coordinates></Point></Placemark><Placemark><name>Shaju Philip</name><Point><gx:drawOrder>1</gx:drawOrder><coordinates>76.357462,10.100243,0</coordinates></Point></Placemark><Placemark><name>Wang Rongbo</name><Point><gx:drawOrder>1</gx:drawOrder><coordinates>116.350327,40.000351,0</coordinates></Point></Placemark><Placemark><name>William Franklin Lytle</name><Point><gx:drawOrder>1</gx:drawOrder><coordinates>-77.047515,38.901425,0</coordinates></Point></Placemark><Placemark><name>Yahya Serif</name><Point><gx:drawOrder>1</gx:drawOrder><coordinates>29.976067,40.145677,0</coordinates></Point></Placemark><Placemark><name>Yarub Kahlan Abdul Majeed</name><Point><gx:drawOrder>1</gx:drawOrder><coordinates>55.34859,25.277331,0</coordinates></Point></Placemark><Placemark><name>Younis Mohd Amin Ahmed Kazim</name><Point><gx:drawOrder>1</gx:drawOrder><coordinates>7.531313,51.61891,0</coordinates></Point></Placemark><Placemark><name>Zacharias Mathew</name><Point><gx:drawOrder>1</gx:drawOrder><coordinates>8.533883,47.390103,0</coordinates></Point></Placemark><Placemark><name>Zahra Al Refei</name><Point><gx:drawOrder>1</gx:drawOrder><coordinates>31.3384722,30.1465783,0</coordinates></Point></Placemark><Placemark><name>Zhang Min</name><Point><gx:drawOrder>1</gx:drawOrder><coordinates>113.302472,23.142996,0</coordinates></Point></Placemark><Placemark><name>Zhang Qiuhai</name><Point><gx:drawOrder>1</gx:drawOrder><coordinates>116.31719,39.888412,0</coordinates></Point></Placemark><Placemark><name>Ziaul Akhter</name><Point><gx:drawOrder>1</gx:drawOrder><coordinates>86.210371,22.826276,0</coordinates></Point></Placemark><Placemark><name>Zinab Tawfik Ibrahim</name><Point><gx:drawOrder>1</gx:drawOrder><coordinates>31.242969,29.9955197,0</coordinates></Point></Placemark><Placemark><name>Zuhair Sikafi</name><Point><gx:drawOrder>1</gx:drawOrder><coordinates>55.296442,25.256494,0</coordinates></Point></Placemark><Placemark><name>Horace Mac Vaugh</name><Point><gx:drawOrder>1</gx:drawOrder><coordinates>-118.149029,34.147407,0</coordinates></Point></Placemark><Placemark><name>Ahmed Bargash</name><Point><gx:drawOrder>1</gx:drawOrder><coordinates>47.672355,29.338961,0</coordinates></Point></Placemark><Placemark><name>Andrey Lugovsky</name><Point><gx:drawOrder>1</gx:drawOrder><coordinates>30.519349,50.447652,0</coordinates></Point></Placemark><Placemark><name>Yousef Nazari</name><Point><gx:drawOrder>1</gx:drawOrder><coordinates>55.34859,25.277331,0</coordinates></Point></Placemark><Placemark><name>Tarek F.Tawil</name><Point><gx:drawOrder>1</gx:drawOrder><coordinates>31.1933088,30.0649419,0</coordinates></Point></Placemark><Placemark><name>Sahar Ahmed Abdo</name><Point><gx:drawOrder>1</gx:drawOrder><coordinates>29.9881197,31.2339158,0</coordinates></Point></Placemark><Placemark><name>Varda Patel</name><Point><gx:drawOrder>1</gx:drawOrder><coordinates>72.820547,18.953609,0</coordinates></Point></Placemark><Placemark><name>Martin Richard De Costa</name><Point><gx:drawOrder>1</gx:drawOrder><coordinates>-1.702065,46.452376,0</coordinates></Point></Placemark><Placemark><name>Mohsen Al Husainy</name><Point><gx:drawOrder>1</gx:drawOrder><coordinates>-1.860428,52.470651,0</coordinates></Point></Placemark><Placemark><name>Abraham Vargase</name><Point><gx:drawOrder>1</gx:drawOrder><coordinates>76.267304,9.931233,0</coordinates></Point></Placemark><Placemark><name>Aget Samson</name><Point><gx:drawOrder>1</gx:drawOrder><coordinates>-77.023615,38.989861,0</coordinates></Point></Placemark><Placemark><name>Arouna Divacar</name><Point><gx:drawOrder>1</gx:drawOrder><coordinates>77.596124,12.957804,0</coordinates></Point></Placemark><Placemark><name>Alberto Al Aamida</name><Point><gx:drawOrder>1</gx:drawOrder><coordinates>-106.3971386,31.6371904,0</coordinates></Point></Placemark><Placemark><name>Amal Mohd Alsayed Sabri</name><Point><gx:drawOrder>1</gx:drawOrder><coordinates>31.286959,30.0973046,0</coordinates></Point></Placemark><Placemark><name>Amal Ahmed M. Al Haj Basheer</name><Point><gx:drawOrder>1</gx:drawOrder><coordinates>31.3627882,30.1364311,0</coordinates></Point></Placemark><Placemark><name>Ameet Kumar Ashok</name><Point><gx:drawOrder>1</gx:drawOrder><coordinates>77.598646,12.894769,0</coordinates></Point></Placemark><Placemark><name>Eric Richard Johnson</name><Point><gx:drawOrder>1</gx:drawOrder><coordinates>-84.003695,34.107474,0</coordinates></Point></Placemark><Placemark><name>Ezabelita T. Manauel</name><Point><gx:drawOrder>1</gx:drawOrder><coordinates>-71.9486024,-13.5266374,0</coordinates></Point></Placemark><Placemark><name>Eva Hills</name><Point><gx:drawOrder>1</gx:drawOrder><coordinates>-115.269893,36.297782,0</coordinates></Point></Placemark><Placemark><name>Iman Sami Abdul-Haleem</name><Point><gx:drawOrder>1</gx:drawOrder><coordinates>-73.678031,45.511758,0</coordinates></Point></Placemark><Placemark><name>Abu Baker Seddiq A.Ahmed</name><Point><gx:drawOrder>1</gx:drawOrder><coordinates>31.3044673,29.9723691,0</coordinates></Point></Placemark><Placemark><name>Ajeet I. Jackson</name><Point><gx:drawOrder>1</gx:drawOrder><coordinates>74.8802539,31.614637,0</coordinates></Point></Placemark><Placemark><name>Elezabeth Marta Lager K.</name><Point><gx:drawOrder>1</gx:drawOrder><coordinates>-0.121753,51.534935,0</coordinates></Point></Placemark><Placemark><name>Anna Karin A. Rosenberg</name><Point><gx:drawOrder>1</gx:drawOrder><coordinates>21.494454,65.428423,0</coordinates></Point></Placemark><Placemark><name>Anil George Vargese</name><Point><gx:drawOrder>1</gx:drawOrder><coordinates>76.357462,10.100243,0</coordinates></Point></Placemark><Placemark><name>Audi Kumar</name><Point><gx:drawOrder>1</gx:drawOrder><coordinates>72.911176,19.095816,0</coordinates></Point></Placemark><Placemark><name>Iman Anwar Abdo Hashem</name><Point><gx:drawOrder>1</gx:drawOrder><coordinates>29.9899889,31.218774,0</coordinates></Point></Placemark><Placemark><name>Patres Hai</name><Point><gx:drawOrder>1</gx:drawOrder><coordinates>100.882966,12.926733,0</coordinates></Point></Placemark><Placemark><name>Batool Al Rahman</name><Point><gx:drawOrder>1</gx:drawOrder><coordinates>31.370671,30.135683,0</coordinates></Point></Placemark><Placemark><name>Bilal Ibrahim Mohd Mashaal</name><Point><gx:drawOrder>1</gx:drawOrder><coordinates>31.2491764,30.1241782,0</coordinates></Point></Placemark><Placemark><name>Pier Arni Taileen</name><Point><gx:drawOrder>1</gx:drawOrder><coordinates>-61.963909,-33.749505,0</coordinates></Point></Placemark><Placemark><name>Jalal Suleiman A. Ramadan</name><Point><gx:drawOrder>1</gx:drawOrder><coordinates>-1.860428,52.470651,0</coordinates></Point></Placemark><Placemark><name>James Weatherspoon Mack Lzak</name><Point><gx:drawOrder>1</gx:drawOrder><coordinates>-73.98969,40.673265,0</coordinates></Point></Placemark><Placemark><name>Hussian Mohd .Al Isamail</name><Point><gx:drawOrder>1</gx:drawOrder><coordinates>31.3335038,30.1295269,0</coordinates></Point></Placemark><Placemark><name>Haqi John Joran</name><Point><gx:drawOrder>1</gx:drawOrder><coordinates>-104.829163,38.876011,0</coordinates></Point></Placemark><Placemark><name>Hanna Johnson</name><Point><gx:drawOrder>1</gx:drawOrder><coordinates>-83.060724,42.352918,0</coordinates></Point></Placemark><Placemark><name>Haider Mahdi</name><Point><gx:drawOrder>1</gx:drawOrder><coordinates>10.069033,54.303871,0</coordinates></Point></Placemark><Placemark><name>Khalid Ali Al Shiekh</name><Point><gx:drawOrder>1</gx:drawOrder><coordinates>31.2726861,30.0899447,0</coordinates></Point></Placemark><Placemark><name>Khalil Mustafa Al Saudi</name><Point><gx:drawOrder>1</gx:drawOrder><coordinates>-87.626886,41.880272,0</coordinates></Point></Placemark><Placemark><name>Khalil Mustafa Al Saudi</name><Point><gx:drawOrder>1</gx:drawOrder><coordinates>-87.626886,41.880272,0</coordinates></Point></Placemark><Placemark><name>Darma Sendo Rai</name><Point><gx:drawOrder>1</gx:drawOrder><coordinates>115.088777,-8.81494,0</coordinates></Point></Placemark><Placemark><name>Dalal Ahmed Abdul Rahman Ali</name><Point><gx:drawOrder>1</gx:drawOrder><coordinates>31.2638943,30.1194385,0</coordinates></Point></Placemark><Placemark><name>Rashed Khalil Kassem</name><Point><gx:drawOrder>1</gx:drawOrder><coordinates>31.211726,31.1769317,0</coordinates></Point></Placemark><Placemark><name>Rania Goreg Helo</name><Point><gx:drawOrder>1</gx:drawOrder><coordinates>-87.626886,41.880272,0</coordinates></Point></Placemark><Placemark><name>Radwan Youssof Abu Edaa</name><Point><gx:drawOrder>1</gx:drawOrder><coordinates>31.2509094,30.0435534,0</coordinates></Point></Placemark><Placemark><name>Zainub Mohd . Jwad</name><Point><gx:drawOrder>1</gx:drawOrder><coordinates>-87.626886,41.880272,0</coordinates></Point></Placemark><Placemark><name>Saji Joseph Mathew</name><Point><gx:drawOrder>1</gx:drawOrder><coordinates>75.49564,12.089594,0</coordinates></Point></Placemark><Placemark><name>Sara Seraj</name><Point><gx:drawOrder>1</gx:drawOrder><coordinates>-4.256858,56.150904,0</coordinates></Point></Placemark><Placemark><name>Sahar Mohd. Darwish</name><Point><gx:drawOrder>1</gx:drawOrder><coordinates>29.9881115,31.2341219,0</coordinates></Point></Placemark><Placemark><name>Salima Ibrahim Mohd.</name><Point><gx:drawOrder>1</gx:drawOrder><coordinates>124.234887,8.010856,0</coordinates></Point></Placemark><Placemark><name>Suni Fernandez</name><Point><gx:drawOrder>1</gx:drawOrder><coordinates>77.630011,13.030052,0</coordinates></Point></Placemark><Placemark><name>Sayed Asghar</name><Point><gx:drawOrder>1</gx:drawOrder><coordinates>74.269845,31.493144,0</coordinates></Point></Placemark><Placemark><name>Shehab Omar</name><Point><gx:drawOrder>1</gx:drawOrder><coordinates>31.2358789,30.0124844,0</coordinates></Point></Placemark><Placemark><name>Shieny Jos</name><Point><gx:drawOrder>1</gx:drawOrder><coordinates>-0.156254,51.49732,0</coordinates></Point></Placemark><Placemark><name>Safaa Ibrahim Al Yasmin</name><Point><gx:drawOrder>1</gx:drawOrder><coordinates>29.9413688,31.1952198,0</coordinates></Point></Placemark><Placemark><name>Asef Homayon</name><Point><gx:drawOrder>1</gx:drawOrder><coordinates>78.4491022,17.3918533,0</coordinates></Point></Placemark><Placemark><name>Abeer Mustafa Mohd Hassan</name><Point><gx:drawOrder>1</gx:drawOrder><coordinates>12.488664,32.787243,0</coordinates></Point></Placemark><Placemark><name>Adnan Mohd Maree</name><Point><gx:drawOrder>1</gx:drawOrder><coordinates>103.763786,1.477188,0</coordinates></Point></Placemark><Placemark><name>Amr Al Saeed Ahmed Shams</name><Point><gx:drawOrder>1</gx:drawOrder><coordinates>31.275632,30.152152,0</coordinates></Point></Placemark><Placemark><name>Vargase George</name><Point><gx:drawOrder>1</gx:drawOrder><coordinates>-96.601753,32.770602,0</coordinates></Point></Placemark><Placemark><name>Vandana Kumar</name><Point><gx:drawOrder>1</gx:drawOrder><coordinates>-73.731487,40.741464,0</coordinates></Point></Placemark><Placemark><name>Christer Erick Pier Clean</name><Point><gx:drawOrder>1</gx:drawOrder><coordinates>-0.121753,51.534935,0</coordinates></Point></Placemark><Placemark><name>Michael George Kan</name><Point><gx:drawOrder>1</gx:drawOrder><coordinates>-59.611071,13.079295,0</coordinates></Point></Placemark><Placemark><name>Mahasen Sayed Ali Mohd</name><Point><gx:drawOrder>1</gx:drawOrder><coordinates>31.3091665,30.1126673,0</coordinates></Point></Placemark><Placemark><name>Mohamed Idrees</name><Point><gx:drawOrder>1</gx:drawOrder><coordinates>68.7685944,28.2205198,0</coordinates></Point></Placemark><Placemark><name>Mahmoud Ali Banjash</name><Point><gx:drawOrder>1</gx:drawOrder><coordinates>74.351966,31.539526,0</coordinates></Point></Placemark><Placemark><name>Maleeka Ahmed Ibrahim</name><Point><gx:drawOrder>1</gx:drawOrder><coordinates>4.265887,50.81347,0</coordinates></Point></Placemark><Placemark><name>Moosa Ramzi Hadad</name><Point><gx:drawOrder>1</gx:drawOrder><coordinates>-87.626886,41.880272,0</coordinates></Point></Placemark><Placemark><name>Nabeel Al Khateeb</name><Point><gx:drawOrder>1</gx:drawOrder><coordinates>31.397064,30.0558649,0</coordinates></Point></Placemark><Placemark><name>Ahmed Hassan Fikri Mustafa</name><Point><gx:drawOrder>1</gx:drawOrder><coordinates>39.7254375,41.0007145,0</coordinates></Point></Placemark><Placemark><name>Atoul Kumar Mersa</name><Point><gx:drawOrder>1</gx:drawOrder><coordinates>78.170155,29.941483,0</coordinates></Point></Placemark><Placemark><name>Ahmed Tawfiq Mohd</name><Point><gx:drawOrder>1</gx:drawOrder><coordinates>31.2684262,30.54059,0</coordinates></Point></Placemark><Placemark><name>Osama Ahmed A.Abdul Rahman</name><Point><gx:drawOrder>1</gx:drawOrder><coordinates>31.254087,30.1179845,0</coordinates></Point></Placemark><Placemark><name>Anita Ravi Kumar</name><Point><gx:drawOrder>1</gx:drawOrder><coordinates>-88.400847,42.179047,0</coordinates></Point></Placemark><Placemark><name>Isehaq Zaki Al Dajani</name><Point><gx:drawOrder>1</gx:drawOrder><coordinates>54.360054,24.491643,0</coordinates></Point></Placemark><Placemark><name>Iman Khaled Ahmed</name><Point><gx:drawOrder>1</gx:drawOrder><coordinates>31.2438255,29.9732317,0</coordinates></Point></Placemark><Placemark><name>Ahmed Saeed A. Ateeq</name><Point><gx:drawOrder>1</gx:drawOrder><coordinates>67.023574,24.829097,0</coordinates></Point></Placemark><Placemark><name>Bratebha Kankaria</name><Point><gx:drawOrder>1</gx:drawOrder><coordinates>88.3898239,22.5708927,0</coordinates></Point></Placemark><Placemark><name>Bhaskaran Krishna Kumar</name><Point><gx:drawOrder>1</gx:drawOrder><coordinates>77.6231551,12.9786184,0</coordinates></Point></Placemark><Placemark><name>Dibali Barwad</name><Point><gx:drawOrder>1</gx:drawOrder><coordinates>115.173317,-8.720719,0</coordinates></Point></Placemark><Placemark><name>Hussian Naseer</name><Point><gx:drawOrder>1</gx:drawOrder><coordinates>31.3142523,30.1565153,0</coordinates></Point></Placemark><Placemark><name>Adel Hindawi</name><Point><gx:drawOrder>1</gx:drawOrder><coordinates>31.250977,30.0560085,0</coordinates></Point></Placemark><Placemark><name>Abdulaziz Mohd Mahmood</name><Point><gx:drawOrder>1</gx:drawOrder><coordinates>31.2527364,29.971126,0</coordinates></Point></Placemark><Placemark><name>Maria France Peter Mance</name><Point><gx:drawOrder>1</gx:drawOrder><coordinates>-0.076682,51.548752,0</coordinates></Point></Placemark><Placemark><name>Mazen Ibraheem Eisa</name><Point><gx:drawOrder>1</gx:drawOrder><coordinates>31.3160028,30.1330784,0</coordinates></Point></Placemark><Placemark><name>Mohamed Ayoub Abdul Hameed</name><Point><gx:drawOrder>1</gx:drawOrder><coordinates>31.1749955,29.9975567,0</coordinates></Point></Placemark><Placemark><name>Wafa Mahmoud Ez El Deen</name><Point><gx:drawOrder>1</gx:drawOrder><coordinates>31.231362,30.0652232,0</coordinates></Point></Placemark><Placemark><name>Waheeb Eissa Marzouk</name><Point><gx:drawOrder>1</gx:drawOrder><coordinates>31.4101709,31.0568944,0</coordinates></Point></Placemark><Placemark><name>Hussam Al Deen Ahmed</name><Point><gx:drawOrder>1</gx:drawOrder><coordinates>30.968076,30.440813,0</coordinates></Point></Placemark><Placemark><name>Rajo Nariendra Babo</name><Point><gx:drawOrder>1</gx:drawOrder><coordinates>77.5919552,12.9672458,0</coordinates></Point></Placemark><Placemark><name>Rajo Nariendra Babo</name><Point><gx:drawOrder>1</gx:drawOrder><coordinates>77.5919552,12.9672458,0</coordinates></Point></Placemark><Placemark><name>Rama Swami K.Krishana</name><Point><gx:drawOrder>1</gx:drawOrder><coordinates>80.6334314,16.5159294,0</coordinates></Point></Placemark><Placemark><name>Sayed Majeed Aref</name><Point><gx:drawOrder>1</gx:drawOrder><coordinates>31.8864105,26.3032826,0</coordinates></Point></Placemark><Placemark><name>Nicola Matev</name><Point><gx:drawOrder>1</gx:drawOrder><coordinates>-0.628687,48.497976,0</coordinates></Point></Placemark><Placemark><name>Hisham Mohd Farouk</name><Point><gx:drawOrder>1</gx:drawOrder><coordinates>31.3955207,31.0301659,0</coordinates></Point></Placemark><Placemark><name>Amal Ahmed Mahmoud Al Belli</name><Point><gx:drawOrder>1</gx:drawOrder><coordinates>-61.963909,-33.749505,0</coordinates></Point></Placemark><Placemark><name>Anshar Abdul Kareem</name><Point><gx:drawOrder>1</gx:drawOrder><coordinates>124.234887,8.010856,0</coordinates></Point></Placemark><Placemark><name>Jacob John</name><Point><gx:drawOrder>1</gx:drawOrder><coordinates>145.490482,-17.269633,0</coordinates></Point></Placemark><Placemark><name>Abbas Ahmed Esmat Al Sadat</name><Point><gx:drawOrder>1</gx:drawOrder><coordinates>29.935619,31.1913447,0</coordinates></Point></Placemark><Placemark><name>Abla Ahmed A. Ibrahim</name><Point><gx:drawOrder>1</gx:drawOrder><coordinates>31.2499627,30.0895192,0</coordinates></Point></Placemark><Placemark><name>Ali Hassan Abro</name><Point><gx:drawOrder>1</gx:drawOrder><coordinates>67.052628,24.983111,0</coordinates></Point></Placemark><Placemark><name>Ali Ali Sayed</name><Point><gx:drawOrder>1</gx:drawOrder><coordinates>30.0552,31.296601,0</coordinates></Point></Placemark><Placemark><name>Ghazi Mohd Nazeer</name><Point><gx:drawOrder>1</gx:drawOrder><coordinates>-87.626886,41.880272,0</coordinates></Point></Placemark><Placemark><name>Fawzi Ibrahim Al Ani</name><Point><gx:drawOrder>1</gx:drawOrder><coordinates>101.670541,3.131919,0</coordinates></Point></Placemark><Placemark><name>Qasem Ali Shah</name><Point><gx:drawOrder>1</gx:drawOrder><coordinates>68.273056,24.710132,0</coordinates></Point></Placemark><Placemark><name>Qasem Ali Shah</name><Point><gx:drawOrder>1</gx:drawOrder><coordinates>68.273056,24.710132,0</coordinates></Point></Placemark><Placemark><name>Carole Caca Fathima</name><Point><gx:drawOrder>1</gx:drawOrder><coordinates>-9.154993,38.717094,0</coordinates></Point></Placemark><Placemark><name>Krishna Kumar Jubta</name><Point><gx:drawOrder>1</gx:drawOrder><coordinates>80.3509763,26.4592183,0</coordinates></Point></Placemark><Placemark><name>Michael Harb</name><Point><gx:drawOrder>1</gx:drawOrder><coordinates>15.438357,47.067532,0</coordinates></Point></Placemark><Placemark><name>Abu Baker Ahmed Hamad</name><Point><gx:drawOrder>1</gx:drawOrder><coordinates>31.4051157,30.1521091,0</coordinates></Point></Placemark><Placemark><name>Alisar Khoori</name><Point><gx:drawOrder>1</gx:drawOrder><coordinates>-73.819928,41.885514,0</coordinates></Point></Placemark><Placemark><name>Braveen P.E Naveen</name><Point><gx:drawOrder>1</gx:drawOrder><coordinates>78.56467,17.401544,0</coordinates></Point></Placemark><Placemark><name>Hazem Hassan Mustafa</name><Point><gx:drawOrder>1</gx:drawOrder><coordinates>29.9670295,31.2265758,0</coordinates></Point></Placemark><Placemark><name>Hassan Mohd Al Husaini</name><Point><gx:drawOrder>1</gx:drawOrder><coordinates>78.4673797,17.362123,0</coordinates></Point></Placemark><Placemark><name>Serinvas Menoon</name><Point><gx:drawOrder>1</gx:drawOrder><coordinates>78.4987799,17.4348051,0</coordinates></Point></Placemark><Placemark><name>Sameer Salman Hussain Al Ali</name><Point><gx:drawOrder>1</gx:drawOrder><coordinates>31.3327101,30.1515231,0</coordinates></Point></Placemark><Placemark><name>Fardous Ali Yousef</name><Point><gx:drawOrder>1</gx:drawOrder><coordinates>31.2832164,30.1371429,0</coordinates></Point></Placemark><Placemark><name>Karra Khaled Al Sheikh Al Tayeb</name><Point><gx:drawOrder>1</gx:drawOrder><coordinates>32.6535235,25.7156007,0</coordinates></Point></Placemark><Placemark><name>Nadia Haddad</name><Point><gx:drawOrder>1</gx:drawOrder><coordinates>-46.907647,-23.195917,0</coordinates></Point></Placemark><Placemark><name>Ibrahim Mahmoud Mansour</name><Point><gx:drawOrder>1</gx:drawOrder><coordinates>31.2072961,30.0421899,0</coordinates></Point></Placemark><Placemark><name>Alex Jhon</name><Point><gx:drawOrder>1</gx:drawOrder><coordinates>-73.180426,44.514865,0</coordinates></Point></Placemark><Placemark><name>Joseph Saloom</name><Point><gx:drawOrder>1</gx:drawOrder><coordinates>-92.037187,30.167253,0</coordinates></Point></Placemark><Placemark><name>Tareq Mohd Osman</name><Point><gx:drawOrder>1</gx:drawOrder><coordinates>31.2130234,30.078652,0</coordinates></Point></Placemark><Placemark><name>Feebin Om Thomshan</name><Point><gx:drawOrder>1</gx:drawOrder><coordinates>100.529738,13.743198,0</coordinates></Point></Placemark><Placemark><name>Amani Mohd Al Hakeem</name><Point><gx:drawOrder>1</gx:drawOrder><coordinates>-87.626886,41.880272,0</coordinates></Point></Placemark><Placemark><name>Patricia Edward</name><Point><gx:drawOrder>1</gx:drawOrder><coordinates>-72.980136,43.607989,0</coordinates></Point></Placemark><Placemark><name>Basheera Ahmed Amin</name><Point><gx:drawOrder>1</gx:drawOrder><coordinates>29.9647267,31.2329496,0</coordinates></Point></Placemark><Placemark><name>Hareth Zeidan</name><Point><gx:drawOrder>1</gx:drawOrder><coordinates>78.485207,15.48552,0</coordinates></Point></Placemark><Placemark><name>Amr Mohd Salah Al Deen</name><Point><gx:drawOrder>1</gx:drawOrder><coordinates>29.9997158,31.2594947,0</coordinates></Point></Placemark><Placemark><name>Madho Mahajan</name><Point><gx:drawOrder>1</gx:drawOrder><coordinates>77.234763,28.656435,0</coordinates></Point></Placemark><Placemark><name>Merli Jackleen Leoni</name><Point><gx:drawOrder>1</gx:drawOrder><coordinates>-61.963909,-33.749505,0</coordinates></Point></Placemark><Placemark><name>Mohd Al Badawi</name><Point><gx:drawOrder>1</gx:drawOrder><coordinates>29.898472,31.200004,0</coordinates></Point></Placemark><Placemark><name>Mohd Kamal Mahmoud Al Shareef</name><Point><gx:drawOrder>1</gx:drawOrder><coordinates>31.3986687,31.0425035,0</coordinates></Point></Placemark><Placemark><name>Saeed Mahmoud Eissa</name><Point><gx:drawOrder>1</gx:drawOrder><coordinates>31.2979863,30.115008,0</coordinates></Point></Placemark><Placemark><name>Ahmed Hareth Salah Al Deen</name><Point><gx:drawOrder>1</gx:drawOrder><coordinates>31.2543657,30.0617119,0</coordinates></Point></Placemark><Placemark><name>Jamal Mohd J.Ibrahim</name><Point><gx:drawOrder>1</gx:drawOrder><coordinates>31.4128954,31.0606108,0</coordinates></Point></Placemark><Placemark><name>Khalid Sami Ahmed Zakaria</name><Point><gx:drawOrder>1</gx:drawOrder><coordinates>-1.860428,52.470651,0</coordinates></Point></Placemark><Placemark><name>Khalid Sami Ahmed Zakaria</name><Point><gx:drawOrder>1</gx:drawOrder><coordinates>-1.860428,52.470651,0</coordinates></Point></Placemark><Placemark><name>Rajae Mohd Ahmed Ali</name><Point><gx:drawOrder>1</gx:drawOrder><coordinates>101.670541,3.131919,0</coordinates></Point></Placemark><Placemark><name>Rida Abdul Hussain Sudjar</name><Point><gx:drawOrder>1</gx:drawOrder><coordinates>-1.860428,52.470651,0</coordinates></Point></Placemark><Placemark><name>Dhafer Ali Aboud</name><Point><gx:drawOrder>1</gx:drawOrder><coordinates>-0.116673,51.506485,0</coordinates></Point></Placemark><Placemark><name>Alaa Aldeen Ibrahim Imam</name><Point><gx:drawOrder>1</gx:drawOrder><coordinates>31.1779193,30.0604851,0</coordinates></Point></Placemark><Placemark><name>Omar Mohd Fawzi</name><Point><gx:drawOrder>1</gx:drawOrder><coordinates>31.2339146,30.0381237,0</coordinates></Point></Placemark><Placemark><name>Mohd Abdul Razak</name><Point><gx:drawOrder>1</gx:drawOrder><coordinates>55.355752,25.179942,0</coordinates></Point></Placemark><Placemark><name>Mathew Korien</name><Point><gx:drawOrder>1</gx:drawOrder><coordinates>-80.713382,35.139679,0</coordinates></Point></Placemark><Placemark><name>Mohd Moheb Shah</name><Point><gx:drawOrder>1</gx:drawOrder><coordinates>31.2447972,30.0331833,0</coordinates></Point></Placemark><Placemark><name>Mahmoud Ibrahim Mohd Al Sheikh</name><Point><gx:drawOrder>1</gx:drawOrder><coordinates>31.2978146,30.1247879,0</coordinates></Point></Placemark><Placemark><name>Amal Habeb</name><Point><gx:drawOrder>1</gx:drawOrder><coordinates>31.2906543,30.9440356,0</coordinates></Point></Placemark><Placemark><name>Kartie Jannag Divi</name><Point><gx:drawOrder>1</gx:drawOrder><coordinates>72.919899,33.630789,0</coordinates></Point></Placemark><Placemark><name>Krishna Sami Sindram</name><Point><gx:drawOrder>1</gx:drawOrder><coordinates>-76.591002,40.140472,0</coordinates></Point></Placemark><Placemark><name>Majdi Abu Baker Saleh</name><Point><gx:drawOrder>1</gx:drawOrder><coordinates>-1.860428,52.470651,0</coordinates></Point></Placemark><Placemark><name>Mini Korian</name><Point><gx:drawOrder>1</gx:drawOrder><coordinates>-118.308425,34.055203,0</coordinates></Point></Placemark><Placemark><name>Nafisah Khalid Moussa</name><Point><gx:drawOrder>1</gx:drawOrder><coordinates>31.2352542,30.0155261,0</coordinates></Point></Placemark><Placemark><name>Hala Mustafa Sayed</name><Point><gx:drawOrder>1</gx:drawOrder><coordinates>31.3501902,30.0825465,0</coordinates></Point></Placemark><Placemark><name>Bahskar Roi</name><Point><gx:drawOrder>1</gx:drawOrder><coordinates>88.3183471,22.4880005,0</coordinates></Point></Placemark><Placemark><name>Rami Mostafa</name><Point><gx:drawOrder>1</gx:drawOrder><coordinates>30.8399542,31.046013,0</coordinates></Point></Placemark><Placemark><name>Sntor Maria</name><Point><gx:drawOrder>1</gx:drawOrder><coordinates>-122.335469,47.604615,0</coordinates></Point></Placemark><Placemark><name>Tariq Al Ansari</name><Point><gx:drawOrder>1</gx:drawOrder><coordinates>46.6498081,24.7702141,0</coordinates></Point></Placemark><Placemark><name>Chandra Brakas</name><Point><gx:drawOrder>1</gx:drawOrder><coordinates>76.559858,18.388073,0</coordinates></Point></Placemark><Placemark><name>Maya Devi Pillai</name><Point><gx:drawOrder>1</gx:drawOrder><coordinates>76.303467,10.01486,0</coordinates></Point></Placemark><Placemark><name>Mahmoud Mohd Hasan Suleiman</name><Point><gx:drawOrder>1</gx:drawOrder><coordinates>31.2062935,30.0800101,0</coordinates></Point></Placemark><Placemark><name>Haider Loai</name><Point><gx:drawOrder>1</gx:drawOrder><coordinates>9.983772,47.021752,0</coordinates></Point></Placemark><Placemark><name>Fredree Aliver</name><Point><gx:drawOrder>1</gx:drawOrder><coordinates>-86.922236,37.8049343,0</coordinates></Point></Placemark><Placemark><name>Mathew George</name><Point><gx:drawOrder>1</gx:drawOrder><coordinates>-96.77053,33.100559,0</coordinates></Point></Placemark><Placemark><name>Ayman Mustafa Mohd Salem</name><Point><gx:drawOrder>1</gx:drawOrder><coordinates>31.2116235,29.9998239,0</coordinates></Point></Placemark><Placemark><name>Ibrahim Eisa Ahmed Awad</name><Point><gx:drawOrder>1</gx:drawOrder><coordinates>31.2032183,30.1100385,0</coordinates></Point></Placemark><Placemark><name>David Androw Simpson</name><Point><gx:drawOrder>1</gx:drawOrder><coordinates>-82.881672,41.288133,0</coordinates></Point></Placemark><Placemark><name>Ranjan Mathew</name><Point><gx:drawOrder>1</gx:drawOrder><coordinates>-76.856247,42.162209,0</coordinates></Point></Placemark><Placemark><name>Mohd Khair Ahmed Mahmoud</name><Point><gx:drawOrder>1</gx:drawOrder><coordinates>31.3188512,30.1063732,0</coordinates></Point></Placemark><Placemark><name>Muhannad Helmi Abdul Wahab</name><Point><gx:drawOrder>1</gx:drawOrder><coordinates>31.2198694,30.0941899,0</coordinates></Point></Placemark><Placemark><name>Morveen Alen White</name><Point><gx:drawOrder>1</gx:drawOrder><coordinates>168.830947,-44.938412,0</coordinates></Point></Placemark><Placemark><name>Al Nadr Mustafa Shareef</name><Point><gx:drawOrder>1</gx:drawOrder><coordinates>30.989082,30.8070509,0</coordinates></Point></Placemark><Placemark><name>Brahan Trama</name><Point><gx:drawOrder>1</gx:drawOrder><coordinates>85.3387633,23.3744909,0</coordinates></Point></Placemark><Placemark><name>Mohd Ahmed Ali Salman</name><Point><gx:drawOrder>1</gx:drawOrder><coordinates>-87.626886,41.880272,0</coordinates></Point></Placemark><Placemark><name>Ameena Mohd Ahmed Zein</name><Point><gx:drawOrder>1</gx:drawOrder><coordinates>31.1957625,30.0040143,0</coordinates></Point></Placemark><Placemark><name>Imanuel Darsi</name><Point><gx:drawOrder>1</gx:drawOrder><coordinates>11.098915,45.423156,0</coordinates></Point></Placemark><Placemark><name>Sankar Anar Haryharan</name><Point><gx:drawOrder>1</gx:drawOrder><coordinates>77.8185452,12.7321122,0</coordinates></Point></Placemark><Placemark><name>Abdul Al Ahad Khan</name><Point><gx:drawOrder>1</gx:drawOrder><coordinates>-1.860428,52.470651,0</coordinates></Point></Placemark><Placemark><name>Leith Baker</name><Point><gx:drawOrder>1</gx:drawOrder><coordinates>-3.207577,55.950285,0</coordinates></Point></Placemark><Placemark><name>Maher Ayoub M. Ayoub</name><Point><gx:drawOrder>1</gx:drawOrder><coordinates>31.2447873,30.0301161,0</coordinates></Point></Placemark><Placemark><name>Ivanova Viera</name><Point><gx:drawOrder>1</gx:drawOrder><coordinates>17.154343,48.048665,0</coordinates></Point></Placemark><Placemark><name>Yasser Ahmed Jarad</name><Point><gx:drawOrder>1</gx:drawOrder><coordinates>-87.626886,41.880272,0</coordinates></Point></Placemark><Placemark><name>Asokan Bahaskaran Nair</name><Point><gx:drawOrder>1</gx:drawOrder><coordinates>-96.954506,32.836066,0</coordinates></Point></Placemark><Placemark><name>Jaya Mohnan</name><Point><gx:drawOrder>1</gx:drawOrder><coordinates>75.7773553,11.2615374,0</coordinates></Point></Placemark><Placemark><name>Hassan Mohd Imam</name><Point><gx:drawOrder>1</gx:drawOrder><coordinates>-87.626886,41.880272,0</coordinates></Point></Placemark><Placemark><name>Hassan Mohd Sabri</name><Point><gx:drawOrder>1</gx:drawOrder><coordinates>103.316343,4.373849,0</coordinates></Point></Placemark><Placemark><name>Khalid Abdul Kader Ahmed Salama</name><Point><gx:drawOrder>1</gx:drawOrder><coordinates>32.271459,30.596492,0</coordinates></Point></Placemark><Placemark><name>Sonita Subash Mehita</name><Point><gx:drawOrder>1</gx:drawOrder><coordinates>72.832946,19.055988,0</coordinates></Point></Placemark><Placemark><name>Abdul Nasser Mohd Al Saadi</name><Point><gx:drawOrder>1</gx:drawOrder><coordinates>-73.678031,45.511758,0</coordinates></Point></Placemark><Placemark><name>Farouk Ahmed Hasani</name><Point><gx:drawOrder>1</gx:drawOrder><coordinates>32.82453,39.939216,0</coordinates></Point></Placemark><Placemark><name>Kumar Hari Haran</name><Point><gx:drawOrder>1</gx:drawOrder><coordinates>76.278472,9.987688,0</coordinates></Point></Placemark><Placemark><name>Mohd Sayed Al Deen</name><Point><gx:drawOrder>1</gx:drawOrder><coordinates>31.2509483,30.0845601,0</coordinates></Point></Placemark><Placemark><name>Mohd Momen Al Hak</name><Point><gx:drawOrder>1</gx:drawOrder><coordinates>31.2435896,30.0536137,0</coordinates></Point></Placemark><Placemark><name>Adam Saheb</name><Point><gx:drawOrder>1</gx:drawOrder><coordinates>31.2503498,30.0893638,0</coordinates></Point></Placemark><Placemark><name>Ashraf Mohd Mohd Khaleel</name><Point><gx:drawOrder>1</gx:drawOrder><coordinates>31.2718459,30.1216912,0</coordinates></Point></Placemark><Placemark><name>Alksander Ivanov Henev</name><Point><gx:drawOrder>1</gx:drawOrder><coordinates>-0.126753,51.508791,0</coordinates></Point></Placemark><Placemark><name>Ansari Abbad Al Rahman</name><Point><gx:drawOrder>1</gx:drawOrder><coordinates>46.7657925,24.7116151,0</coordinates></Point></Placemark><Placemark><name>Ansari Abbad Al Rahman</name><Point><gx:drawOrder>1</gx:drawOrder><coordinates>46.7657925,24.7116151,0</coordinates></Point></Placemark><Placemark><name>Ayman Ibrahim Younes</name><Point><gx:drawOrder>1</gx:drawOrder><coordinates>31.4128954,31.0606108,0</coordinates></Point></Placemark><Placemark><name>Abu Mohd Jaffer Jothman</name><Point><gx:drawOrder>1</gx:drawOrder><coordinates>-87.626886,41.880272,0</coordinates></Point></Placemark><Placemark><name>Ahmed Mohd Ali Al Akbari</name><Point><gx:drawOrder>1</gx:drawOrder><coordinates>74.327643,31.581256,0</coordinates></Point></Placemark><Placemark><name>Ashok Madhaven Nair</name><Point><gx:drawOrder>1</gx:drawOrder><coordinates>77.5386952,12.9995011,0</coordinates></Point></Placemark><Placemark><name>Anjilica Christin Razak</name><Point><gx:drawOrder>1</gx:drawOrder><coordinates>124.234887,8.010856,0</coordinates></Point></Placemark><Placemark><name>Padmanbhan Artiat</name><Point><gx:drawOrder>1</gx:drawOrder><coordinates>-122.040535,37.950433,0</coordinates></Point></Placemark><Placemark><name>Baharat Ghwalani</name><Point><gx:drawOrder>1</gx:drawOrder><coordinates>72.8626018,19.1193288,0</coordinates></Point></Placemark><Placemark><name>Jan Paul Hassan</name><Point><gx:drawOrder>1</gx:drawOrder><coordinates>55.309971,25.243638,0</coordinates></Point></Placemark><Placemark><name>Mirah Danish Chity</name><Point><gx:drawOrder>1</gx:drawOrder><coordinates>-70.76158,44.0377499,0</coordinates></Point></Placemark><Placemark><name>Ahmed Abdulhaleem Mohd</name><Point><gx:drawOrder>1</gx:drawOrder><coordinates>30.940458,30.679352,0</coordinates></Point></Placemark><Placemark><name>Raja Vender</name><Point><gx:drawOrder>1</gx:drawOrder><coordinates>77.0103486,10.9973609,0</coordinates></Point></Placemark><Placemark><name>Ali Said Ahmed M.Ali Al Zayat</name><Point><gx:drawOrder>1</gx:drawOrder><coordinates>31.0093067,30.5440045,0</coordinates></Point></Placemark><Placemark><name>Mahdi Abdullah Othman Sharif</name><Point><gx:drawOrder>1</gx:drawOrder><coordinates>-73.678031,45.511758,0</coordinates></Point></Placemark><Placemark><name>Osama M. Jalal</name><Point><gx:drawOrder>1</gx:drawOrder><coordinates>55.3,25.2,0</coordinates></Point></Placemark><Placemark><name>Tanfer Fatimah</name><Point><gx:drawOrder>1</gx:drawOrder><coordinates>113.700804,-8.174853,0</coordinates></Point></Placemark><Placemark><name>Sahar Ali Saleh</name><Point><gx:drawOrder>1</gx:drawOrder><coordinates>31.1882156,27.1885011,0</coordinates></Point></Placemark><Placemark><name>Adel Abu Shabab</name><Point><gx:drawOrder>1</gx:drawOrder><coordinates>31.2963232,30.0397194,0</coordinates></Point></Placemark><Placemark><name>Sawsan Jakoub</name><Point><gx:drawOrder>1</gx:drawOrder><coordinates>-78.695587,42.980631,0</coordinates></Point></Placemark><Placemark><name>Motat Francis Deves</name><Point><gx:drawOrder>1</gx:drawOrder><coordinates>-46.5448749,-22.9486441,0</coordinates></Point></Placemark><Placemark><name>Saaed Hussaen Al Beok</name><Point><gx:drawOrder>1</gx:drawOrder><coordinates>55.317134,25.265556,0</coordinates></Point></Placemark><Placemark><name>Abraham Varghese</name><Point><gx:drawOrder>1</gx:drawOrder><coordinates>76.267304,9.931233,0</coordinates></Point></Placemark><Placemark><name>John A. Daniel</name><Point><gx:drawOrder>1</gx:drawOrder><coordinates>-79.766807,34.932869,0</coordinates></Point></Placemark><Placemark><name>Vandana</name><Point><gx:drawOrder>1</gx:drawOrder><coordinates>-73.970816,40.783784,0</coordinates></Point></Placemark><Placemark><name>Akbar Ali</name><Point><gx:drawOrder>1</gx:drawOrder><coordinates>72.832057,18.955333,0</coordinates></Point></Placemark><Placemark><name>Said H. El Bayouk</name><Point><gx:drawOrder>1</gx:drawOrder><coordinates>100.540332,13.754118,0</coordinates></Point></Placemark><Placemark><name>Hamed V.</name><Point><gx:drawOrder>1</gx:drawOrder><coordinates>51.285422,35.7324165,0</coordinates></Point></Placemark><Placemark><name>Mohamed Sageer</name><Point><gx:drawOrder>1</gx:drawOrder><coordinates>75.347854,19.884034,0</coordinates></Point></Placemark><Placemark><name>Rath S. C.</name><Point><gx:drawOrder>1</gx:drawOrder><coordinates>-82.810031,34.586017,0</coordinates></Point></Placemark><Placemark><name>Sivaji</name><Point><gx:drawOrder>1</gx:drawOrder><coordinates>72.868739,19.090177,0</coordinates></Point></Placemark><Placemark><name>Manda Venkata Ramana</name><Point><gx:drawOrder>1</gx:drawOrder><coordinates>-108.519501,45.793479,0</coordinates></Point></Placemark><Placemark><name>Azhar Husain Anasari</name><Point><gx:drawOrder>1</gx:drawOrder><coordinates>72.919899,33.630789,0</coordinates></Point></Placemark><Placemark><name>Salim A.</name><Point><gx:drawOrder>1</gx:drawOrder><coordinates>-73.056519,40.941168,0</coordinates></Point></Placemark><Placemark><name>Salim Babu</name><Point><gx:drawOrder>1</gx:drawOrder><coordinates>77.227271,28.665083,0</coordinates></Point></Placemark><Placemark><name>Meenakshi K. P. Ali</name><Point><gx:drawOrder>1</gx:drawOrder><coordinates>72.8456532,19.0050885,0</coordinates></Point></Placemark><Placemark><name>Shanthi Edwin</name><Point><gx:drawOrder>1</gx:drawOrder><coordinates>73.123639,19.229682,0</coordinates></Point></Placemark><Placemark><name>Shirin</name><Point><gx:drawOrder>1</gx:drawOrder><coordinates>-118.602982,34.168175,0</coordinates></Point></Placemark>