<?xml version="1.0" encoding="UTF-8"?><kml xmlns = "http://www.opengis.net/kml/2.2" xmlns:gx="http://www.google.com/kml/ext/2.2" xmlns:kml="http://www.opengis.net/kml/2.2" xmlns:atom="http://www.w3.org/2005/Atom"><Document><name>PP</name><Style id="s_ylw-pushpin"><IconStyle><scale>1.1</scale><Icon><href>http://maps.google.com/mapfiles/kml/pushpin/ylw-pushpin.png</href></Icon><hotSpot x="20" y="2" xunits="pixels" yunits="pixels"/></IconStyle></Style><StyleMap id="m_ylw-pushpin"><Pair><key>normal</key><styleUrl>#s_ylw-pushpin</styleUrl></Pair><Pair><key>highlight</key><styleUrl>#s_ylw-pushpin_hl</styleUrl></Pair></StyleMap><Style id="s_ylw-pushpin_hl"><IconStyle><scale>1.3</scale><Icon><href>http://maps.google.com/mapfiles/kml/pushpin/ylw-pushpin.png</href></Icon><hotSpot x="20" y="2" xunits="pixels" yunits="pixels"/></IconStyle></Style><Placemark><name>Abdul Rahman Shihabi</name><Point><gx:drawOrder>1</gx:drawOrder><coordinates>55.296442,25.256494,0</coordinates></Point></Placemark><Placemark><name>Ahmed Hassan A. Mohd</name><Point><gx:drawOrder>1</gx:drawOrder><coordinates>55.309293,25.275526,0</coordinates></Point></Placemark><Placemark><name>Anand Shenoy</name><Point><gx:drawOrder>1</gx:drawOrder><coordinates>55.277464,25.235489,0</coordinates></Point></Placemark><Placemark><name>Bin Brek</name><Point><gx:drawOrder>1</gx:drawOrder><coordinates>55.301273,25.255947,0</coordinates></Point></Placemark><Placemark><name>Husnia Gargash</name><Point><gx:drawOrder>1</gx:drawOrder><coordinates>55.369166,25.308989,0</coordinates></Point></Placemark><Placemark><name>Jacob Kuruvilla</name><Point><gx:drawOrder>1</gx:drawOrder><coordinates>55.302223,25.245238,0</coordinates></Point></Placemark><Placemark><name>Jyothish George</name><Point><gx:drawOrder>1</gx:drawOrder><coordinates>55.322152,25.270609,0</coordinates></Point></Placemark><Placemark><name>Kamil Al Rustom</name><Point><gx:drawOrder>1</gx:drawOrder><coordinates>55.266799,25.226951,0</coordinates></Point></Placemark><Placemark><name>Maysoon Al Kaisi</name><Point><gx:drawOrder>1</gx:drawOrder><coordinates>55.330041,25.267318,0</coordinates></Point></Placemark><Placemark><name>Michael Formenius</name><Point><gx:drawOrder>1</gx:drawOrder><coordinates>55.217439,25.157171,0</coordinates></Point></Placemark><Placemark><name>Moyad Hassan Flayih</name><Point><gx:drawOrder>1</gx:drawOrder><coordinates>55.34859,25.277331,0</coordinates></Point></Placemark><Placemark><name>Mojgan Seyed Ahmed Azadi</name><Point><gx:drawOrder>1</gx:drawOrder><coordinates>55.322152,25.270609,0</coordinates></Point></Placemark><Placemark><name>Mustafa Ayad</name><Point><gx:drawOrder>1</gx:drawOrder><coordinates>55.304645,25.278848,0</coordinates></Point></Placemark><Placemark><name>Mustafa Hatim Mahesri</name><Point><gx:drawOrder>1</gx:drawOrder><coordinates>55.322152,25.270609,0</coordinates></Point></Placemark><Placemark><name>Nabil Adnan Said</name><Point><gx:drawOrder>1</gx:drawOrder><coordinates>55.328934,25.263816,0</coordinates></Point></Placemark><Placemark><name>Nouhal Kamel Ibrahim</name><Point><gx:drawOrder>1</gx:drawOrder><coordinates>55.3299,25.2556,0</coordinates></Point></Placemark><Placemark><name>Samitha Rajkumar Nair</name><Point><gx:drawOrder>1</gx:drawOrder><coordinates>55.303072,25.25405,0</coordinates></Point></Placemark><Placemark><name>Taher Hassan Khalil</name><Point><gx:drawOrder>1</gx:drawOrder><coordinates>55.326703,25.26249,0</coordinates></Point></Placemark><Placemark><name>Yarub Kahlan Abdul Majeed</name><Point><gx:drawOrder>1</gx:drawOrder><coordinates>55.34859,25.277331,0</coordinates></Point></Placemark><Placemark><name>Zuhair Sikafi</name><Point><gx:drawOrder>1</gx:drawOrder><coordinates>55.296442,25.256494,0</coordinates></Point></Placemark><Placemark><name>Yousef Nazari</name><Point><gx:drawOrder>1</gx:drawOrder><coordinates>55.34859,25.277331,0</coordinates></Point></Placemark><Placemark><name>Mohd Abdul Razak</name><Point><gx:drawOrder>1</gx:drawOrder><coordinates>55.355752,25.179942,0</coordinates></Point></Placemark><Placemark><name>Jan Paul Hassan</name><Point><gx:drawOrder>1</gx:drawOrder><coordinates>55.309971,25.243638,0</coordinates></Point></Placemark><Placemark><name>Osama M. Jalal</name><Point><gx:drawOrder>1</gx:drawOrder><coordinates>55.3,25.2,0</coordinates></Point></Placemark><Placemark><name>Sarmad Aji</name><Point><gx:drawOrder>1</gx:drawOrder><coordinates>55.141462,25.07233,0</coordinates></Point></Placemark><Placemark><name>Allam Al Kowatli</name><Point><gx:drawOrder>1</gx:drawOrder><coordinates>55.237746,25.197292,0</coordinates></Point></Placemark><Placemark><name>Moayad Hasan Flayih</name><Point><gx:drawOrder>1</gx:drawOrder><coordinates>55.34859,25.277331,0</coordinates></Point></Placemark><Placemark><name>Hayder Matouk</name><Point><gx:drawOrder>1</gx:drawOrder><coordinates>55.34859,25.277331,0</coordinates></Point></Placemark><Placemark><name>Sameer Al Awadhi</name><Point><gx:drawOrder>1</gx:drawOrder><coordinates>55.34859,25.277331,0</coordinates></Point></Placemark><Placemark><name>Amer Shaker Al-Hashimi</name><Point><gx:drawOrder>1</gx:drawOrder><coordinates>55.3,25.2,0</coordinates></Point></Placemark><Placemark><name>Muwafak Salman</name><Point><gx:drawOrder>1</gx:drawOrder><coordinates>55.3,25.2,0</coordinates></Point></Placemark><Placemark><name>Atiya Anjum</name><Point><gx:drawOrder>1</gx:drawOrder><coordinates>55.322152,25.270609,0</coordinates></Point></Placemark><Placemark><name>Maryam Y. M. Al-Saeed</name><Point><gx:drawOrder>1</gx:drawOrder><coordinates>55.3005959,25.2604326,0</coordinates></Point></Placemark><Placemark><name>Dragana Sarenac</name><Point><gx:drawOrder>1</gx:drawOrder><coordinates>55.201398,25.152979,0</coordinates></Point></Placemark><Placemark><name>Khaled Al Mansoori</name><Point><gx:drawOrder>1</gx:drawOrder><coordinates>55.268596,25.236084,0</coordinates></Point></Placemark><Placemark><name>Maximilian Riewer</name><Point><gx:drawOrder>1</gx:drawOrder><coordinates>55.30152,25.251863,0</coordinates></Point></Placemark><Placemark><name>Marlies Homann</name><Point><gx:drawOrder>1</gx:drawOrder><coordinates>55.30152,25.251863,0</coordinates></Point></Placemark><Placemark><name>Rabih Abi Nader</name><Point><gx:drawOrder>1</gx:drawOrder><coordinates>55.30152,25.251863,0</coordinates></Point></Placemark><Placemark><name>Rabih Mahfouz</name><Point><gx:drawOrder>1</gx:drawOrder><coordinates>55.30152,25.251863,0</coordinates></Point></Placemark><Placemark><name>Ibrahim Abbara</name><Point><gx:drawOrder>1</gx:drawOrder><coordinates>55.276134,25.23748,0</coordinates></Point></Placemark><Placemark><name>Abbas Hussain Mohammed</name><Point><gx:drawOrder>1</gx:drawOrder><coordinates>55.311999,25.273555,0</coordinates></Point></Placemark><Placemark><name>Cedric Coucke</name><Point><gx:drawOrder>1</gx:drawOrder><coordinates>55.227198,25.184267,0</coordinates></Point></Placemark><Placemark><name>Fakhri Azzam</name><Point><gx:drawOrder>1</gx:drawOrder><coordinates>55.319409,25.266195,0</coordinates></Point></Placemark><Placemark><name>Hibah Shata</name><Point><gx:drawOrder>1</gx:drawOrder><coordinates>55.329167,25.253056,0</coordinates></Point></Placemark><Placemark><name>Husnia A. Gargash</name><Point><gx:drawOrder>1</gx:drawOrder><coordinates>55.369166,25.308989,0</coordinates></Point></Placemark><Placemark><name>Hussein Bushnaq</name><Point><gx:drawOrder>1</gx:drawOrder><coordinates>55.282323,25.21358,0</coordinates></Point></Placemark><Placemark><name>Jyothi Sara Charlie</name><Point><gx:drawOrder>1</gx:drawOrder><coordinates>55.296485,25.240066,0</coordinates></Point></Placemark><Placemark><name>Leila Soudah</name><Point><gx:drawOrder>1</gx:drawOrder><coordinates>55.227661,25.184527,0</coordinates></Point></Placemark><Placemark><name>Max Mazen Sawaf</name><Point><gx:drawOrder>1</gx:drawOrder><coordinates>55.237746,25.197292,0</coordinates></Point></Placemark><Placemark><name>Moayad Hasan Flayih</name><Point><gx:drawOrder>1</gx:drawOrder><coordinates>55.34859,25.277331,0</coordinates></Point></Placemark><Placemark><name>Mohamed Boostani</name><Point><gx:drawOrder>1</gx:drawOrder><coordinates>55.31042,25.26659,0</coordinates></Point></Placemark><Placemark><name>Mohammad Mazen Taji</name><Point><gx:drawOrder>1</gx:drawOrder><coordinates>55.247167,25.17922,0</coordinates></Point></Placemark><Placemark><name>Reena Beegum</name><Point><gx:drawOrder>1</gx:drawOrder><coordinates>55.315832,25.27275,0</coordinates></Point></Placemark><Placemark><name>Sandhya Rajendra Shenoy</name><Point><gx:drawOrder>1</gx:drawOrder><coordinates>55.322152,25.270609,0</coordinates></Point></Placemark><Placemark><name>Wasfi Jaouni</name><Point><gx:drawOrder>1</gx:drawOrder><coordinates>55.3299,25.2556,0</coordinates></Point></Placemark><Placemark><name>Taysir Rashid Jarbouh</name><Point><gx:drawOrder>1</gx:drawOrder><coordinates>55.148173,25.084925,0</coordinates></Point></Placemark><Placemark><name>Ali Ahmed Lootah</name><Point><gx:drawOrder>1</gx:drawOrder><coordinates>55.30304,25.269127,0</coordinates></Point></Placemark><Placemark><name>Jaimala Shukla</name><Point><gx:drawOrder>1</gx:drawOrder><coordinates>55.303072,25.25405,0</coordinates></Point></Placemark><Placemark><name>Mehnaz Kamali</name><Point><gx:drawOrder>1</gx:drawOrder><coordinates>55.257202,25.212635,0</coordinates></Point></Placemark></Document></kml>